,County,Name,Address,Lat,Lng,Type,State
0,Alameda,Doug Siden Visitor Center at Crab Cove,"1252 McKay Ave, Alameda, CA 94501, United States",37.7689185,-122.2782987,tourist,California
1,Alameda,Pacific Pinball Museum,"1510 Webster St, Alameda, CA 94501, United States",37.7737976,-122.2766357,tourist,California
2,Alameda,Sand Castle Picnic Area,"Biking/Hiking Trail, Alameda, CA 94501, United States",37.7646455,-122.2733553,tourist,California
3,Alameda,Alameda Naval Air Museum,"2151 Ferry Point, Alameda, CA 94501, United States",37.7814206,-122.29917,tourist,California
4,Alameda,Alameda Museum,"2324 Alameda Ave, Alameda, CA 94501, United States",37.763542,-122.2441607,tourist,California
5,Alameda,Shoreline Park,"Highway 61, Alameda, CA 94502, United States",37.7382887,-122.2577644,tourist,California
6,Alameda,Elsie Roemer Bird Sanctuary,"Alameda, CA 94501, United States",37.7530036,-122.2471087,tourist,California
7,Alameda,Robert W. Crown Memorial State Beach,"8th Street, Otis Dr, Alameda, CA 94501, United States",37.7661819,-122.2719691,tourist,California
8,Alameda,Bayport Park,"301 Jack London Ave, Alameda, CA 94501, United States",37.7824987,-122.2874333,tourist,California
9,Alameda,Jean Sweeney Open Space Park,"1100 Atlantic Ave, Alameda, CA 94501, United States",37.7796147,-122.263559,tourist,California
10,Alameda,Krusi Park,"900 Mound St, Alameda, CA 94501, United States",37.7538813,-122.2404346,tourist,California
11,Alameda,Chochenyo Park,"2430 Encinal Ave, Alameda, CA 94501, United States",37.7612177,-122.2436379,tourist,California
12,Alameda,The Meyers House and Garden,"2021 Alameda Ave, Alameda, CA 94501, United States",37.7674176,-122.2523945,tourist,California
13,Alameda,Woodstock Park,"351 Cypress St, Alameda, CA 94501, United States",37.7778562,-122.286213,tourist,California
14,Alameda,Dashe Cellars,"1951 Monarch Street Hangar 25, Alameda, CA 94501, United States",37.7802537,-122.3101017,tourist,California
15,Alameda,Lincoln Park,"1450 High St, Alameda, CA 94501, United States",37.7577399,-122.229634,tourist,California
16,Alameda,Middle Harbor Shoreline Park,"2777 Middle Harbor Rd, Oakland, CA 94607, United States",37.8045767,-122.3232961,tourist,California
17,Alameda,Franklin Park,"1432 San Antonio Ave, Alameda, CA 94501, United States",37.7684709,-122.2614621,tourist,California
18,Alameda,Alameda Dog Park,"1302 8th St, Alameda, CA 94501, United States",37.7675211,-122.2732917,tourist,California
19,Alameda,Oakland Zoo,"9777 Golf Links Rd, Oakland, CA 94605, United States",37.7486635,-122.1454166,tourist,California
20,Alameda,Trabocco Kitchen and Cocktails,"2213 S Shore Center, Alameda, CA 94501, United States",37.7572944,-122.2516778,restaurant,California
21,Alameda,alley & vine,"1332 Park St STE D, Alameda, CA 94501, United States",37.7630697,-122.2429258,restaurant,California
22,Alameda,Asena,"2508 Santa Clara Ave, Alameda, CA 94501, United States",37.7641021,-122.2397833,restaurant,California
23,Alameda,Spinning Bones,"1205 Park St, Alameda, CA 94501, United States",37.7611891,-122.2455833,restaurant,California
24,Alameda,Tomatina,"1338 Park St, Alameda, CA 94501, United States",37.7634623,-122.2432553,restaurant,California
25,Alameda,Hang Ten Alameda,"2315 Santa Clara Ave, Alameda, CA 94501, United States",37.7658239,-122.2426123,restaurant,California
26,Alameda,Scolari's Good Eats,"1303 Park St, Alameda, CA 94501, United States",37.7627995,-122.2442227,restaurant,California
27,Alameda,Speisekammer,"2424 Lincoln Ave, Alameda, CA 94501, United States",37.765958,-122.240173,restaurant,California
28,Alameda,Pier 29 Waterfront Restaurant & Bar,"1148 Ballena Blvd, Alameda, CA 94501, United States",37.7668901,-122.287737,restaurant,California
29,Alameda,Pasta Pelican Restaurant,"2455 Mariner Square Dr, Alameda, CA 94501, United States",37.7915238,-122.2774623,restaurant,California
30,Alameda,ALA Mediterranean Grill & Mezzes,"1504 Webster St, Alameda, CA 94501, United States",37.773634,-122.2766302,restaurant,California
31,Alameda,Angelas Kitchen,"1640 Park St, Alameda, CA 94501, United States",37.7674869,-122.2398724,restaurant,California
32,Alameda,Hobnob,"1313 Park St, Alameda, CA 94501, United States",37.7630119,-122.2442474,restaurant,California
33,Alameda,Bowl'd BBQ Alameda,"2201 #D, S Shore Center, Alameda, CA 94501, United States",37.7575864,-122.2521948,restaurant,California
34,Alameda,La Penca Azul,"1440 Park St, Alameda, CA 94501, United States",37.7650533,-122.2417392,restaurant,California
35,Alameda,Ceron Kitchen,"1619 Webster St, Alameda, CA 94501, United States",37.7758755,-122.2769819,restaurant,California
36,Alameda,Abigail's Moroccan Cuisine,"1132 Ballena Blvd, Alameda, CA 94501, United States",37.7661088,-122.2878979,restaurant,California
37,Alameda,Burma Superstar,"1345 Park St, Alameda, CA 94501, United States",37.7637278,-122.2435848,restaurant,California
38,Alameda,1400 Bar & Grill,"1400 Webster St, Alameda, CA 94501, United States",37.7715692,-122.2767087,restaurant,California
39,Alameda,Bucket O' Crawfish,"1919 Webster St, Alameda, CA 94501, United States",37.7787913,-122.2768516,restaurant,California
40,Alameda,Alameda Hospital,"2070 Clinton Ave, Alameda, CA 94501, United States",37.762677,,heathcare,California
41,Alameda,City of Alameda Health Care District,"1402 Park St, Alameda, CA 94501, United States",37.7644008,,heathcare,California
42,Alameda,South Shore Convalescent Hospital,"625 Willow St, Alameda, CA 94501, United States",37.761896,,heathcare,California
43,Alameda,Sushi House,"2375 Shore Line Drive, Alameda",37.754758,-122.250507,gym,California
44,Alameda,Speisekammer,"2424 Lincoln Avenue, Alameda",37.765958,-122.240173,gym,California
45,Alameda,Dragon Rouge Bistro Alameda,"2337 Blanding Avenue, Alameda",37.771479,-122.2375811,gym,California
46,Alameda,Chipotle Mexican Grill,"2314 South Shore Center, Alameda",37.7561207,-122.2501137,gym,California
47,Alameda,La Penca Azul,"1440 Park Street, Alameda",37.7650533,-122.2417392,gym,California
48,Alameda,Applebee's Grill + Bar,"2263 South Shore Center, Alameda",37.7580581,-122.2525383,gym,California
49,Alameda,Sushi King,"1650 Park Street, Alameda",37.7677695,-122.2396795,gym,California
50,Alameda,Starbucks,"1364 Park Street, Alameda",37.76403799999999,-122.242789,gym,California
51,Alameda,Subway,"2212 South Shore Center Space 720, Alameda",37.757094,-122.2523881,gym,California
52,Alameda,Five Guys,"2254 South Shore Center, Alameda",37.7564233,-122.2505439,gym,California
53,Alameda,Subway,"2651 Blanding Avenue Suite A, Alameda",37.7690486,-122.2326722,gym,California
54,Alameda,Bowlero Alameda,"300 Park Street, Alameda",37.754371,-122.249747,gym,California
55,Alameda,Tomatina,"1338 Park Street, Alameda",37.7634623,-122.2432553,gym,California
56,Alameda,East End,"1650 Park Street # A, Alameda",37.76774,-122.2394542,gym,California
57,Alameda,Jim's Coffee Shop,"2333 Lincoln Avenue, Alameda",37.7668415,-122.2410983,gym,California
58,Alameda,Yojimbo,"1221 Park Street, Alameda",37.76151069999999,-122.2452919,gym,California
59,Alameda,Julie's Coffee & Tea Garden,"1223 Park Street, Alameda",37.7616,-122.2452278,gym,California
60,Alameda,Scolari's Good Eats,"1303 Park Street, Alameda",37.7628036,-122.2442314,gym,California
61,Alameda,Ark Chinese Restaurant,"1405 Park Street, Alameda",37.7645235,-122.242915,gym,California
62,Alameda,Acapulco,"2100 Lincoln Avenue, Alameda",37.76940130000001,-122.2481068,gym,California
63,Alameda,Sushi House,"2375 Shore Line Drive, Alameda",37.754758,-122.250507,restaurant,California
64,Alameda,Speisekammer,"2424 Lincoln Avenue, Alameda",37.765958,-122.240173,restaurant,California
65,Alameda,Dragon Rouge Bistro Alameda,"2337 Blanding Avenue, Alameda",37.771479,-122.2375811,restaurant,California
66,Alameda,Chipotle Mexican Grill,"2314 South Shore Center, Alameda",37.7561207,-122.2501137,restaurant,California
67,Alameda,La Penca Azul,"1440 Park Street, Alameda",37.7650533,-122.2417392,restaurant,California
68,Alameda,Applebee's Grill + Bar,"2263 South Shore Center, Alameda",37.7580581,-122.2525383,restaurant,California
69,Alameda,Sushi King,"1650 Park Street, Alameda",37.7677695,-122.2396795,restaurant,California
70,Alameda,Starbucks,"1364 Park Street, Alameda",37.76403799999999,-122.242789,restaurant,California
71,Alameda,Subway,"2212 South Shore Center Space 720, Alameda",37.757094,-122.2523881,restaurant,California
72,Alameda,Five Guys,"2254 South Shore Center, Alameda",37.7564233,-122.2505439,restaurant,California
73,Alameda,Subway,"2651 Blanding Avenue Suite A, Alameda",37.7690486,-122.2326722,restaurant,California
74,Alameda,Bowlero Alameda,"300 Park Street, Alameda",37.754371,-122.249747,restaurant,California
75,Alameda,Tomatina,"1338 Park Street, Alameda",37.7634623,-122.2432553,restaurant,California
76,Alameda,East End,"1650 Park Street # A, Alameda",37.76774,-122.2394542,restaurant,California
77,Alameda,Jim's Coffee Shop,"2333 Lincoln Avenue, Alameda",37.7668415,-122.2410983,restaurant,California
78,Alameda,Yojimbo,"1221 Park Street, Alameda",37.76151069999999,-122.2452919,restaurant,California
79,Alameda,Julie's Coffee & Tea Garden,"1223 Park Street, Alameda",37.7616,-122.2452278,restaurant,California
80,Alameda,Scolari's Good Eats,"1303 Park Street, Alameda",37.7628036,-122.2442314,restaurant,California
81,Alameda,Ark Chinese Restaurant,"1405 Park Street, Alameda",37.7645235,-122.242915,restaurant,California
82,Alameda,Acapulco,"2100 Lincoln Avenue, Alameda",37.76940130000001,-122.2481068,restaurant,California
83,Alameda,Alameda Hospital,"2070 Clinton Avenue, Alameda",37.76267699999999,-122.2541547,healthcare,California
84,Alameda,Clinica la Luna y el Sol,"2700 International Boulevard, Oakland",37.7808837,-122.2311322,healthcare,California
85,Alameda,Park Bridge Nursing Home,"2401 Blanding Avenue, Alameda",37.77061,-122.2369586,healthcare,California
86,Alameda,South Shore Convalescent Hospital,"625 Willow Street, Alameda",37.761896,-122.254081,healthcare,California
87,Alameda,Medical building,"2241 Central Avenue, Alameda",37.7655479,-122.2452347,healthcare,California
88,Alameda,City of Alameda Health Care District,"1402 Park Street, Alameda",37.7644008,-122.2423898,healthcare,California
89,Alameda,Kaiser Permanente Administrative Office,"2424 Central Avenue, Alameda",37.7636144,-122.2420352,healthcare,California
90,Alameda,K6QLF,"2070 Clinton Avenue, Alameda",37.76293529999999,-122.2533321,healthcare,California
91,Alameda,Mobile Clinic,"Mash Building, 2447 Santa Clara Avenue, Alameda",37.7646718,-122.2403087,healthcare,California
92,Alameda,Randys Dr,"2100 Otis Drive, Alameda",37.7606149,-122.2544636,healthcare,California
93,Alpine,Sky Falconry,"593 Anderson Truck Trail, Alpine, CA 91901, United States",32.8802875,-116.7536792,tourist,California
94,Alpine,Wright's Field,"1951 Tavern Rd, Alpine, CA 91901, United States",32.8194935,-116.763489,tourist,California
95,Alpine,Alpine Historical Society,"2116 Tavern Rd, Alpine, CA 91901, United States",32.8225486,-116.7762438,tourist,California
96,Alpine,Viejas Casino & Resort,"5000 Willows Rd, Alpine, CA 91901, United States",32.842284,-116.705365,tourist,California
97,Alpine,Potato Chip Rock,"Ramona, CA 92065, United States",33.0092674,-116.9742491,tourist,California
98,Alpine,Fort Cross Old Timey Adventures,"4425 CA-78, Santa Ysabel, CA 92070, United States",33.0974631,-116.6469671,tourist,California
99,Alpine,Lions Tigers & Bears,"24402 Martin Way, Alpine, CA 91901, United States",32.8135682,-116.6225939,tourist,California
100,Alpine,El Monte County Park,"15805 El Monte Rd, Lakeside, CA 92040, United States",32.8911684,-116.8478604,tourist,California
101,Alpine,Louis Stelzer County Park,"11470 Wildcat Canyon Rd, Lakeside, CA 92040, United States",32.8811317,-116.8955863,tourist,California
102,Alpine,Balboa Park,"San Diego, CA, United States",32.7341479,-117.144553,tourist,California
103,Alpine,Viejas Mountain Trailhead,"Mountain View Court, Alpine, CA 91901, United States",32.8566126,-116.7421016,tourist,California
104,Alpine,Anza-Borrego Desert State Park,"Borrego Springs, CA 92004, United States",33.100492,-116.3013266,tourist,California
105,Alpine,San Diego Zoo Safari Park,"15500 San Pasqual Valley Rd, Escondido, CA 92027, United States",33.0974458,-116.9957227,tourist,California
106,Alpine,Living Coast Discovery Center,"1000 Gunpowder Point Dr, Chula Vista, CA 91910, United States",32.6398856,-117.1022858,tourist,California
107,Alpine,El Capitan Preserve,"13775 Blue Sky Rnch Rd, Lakeside, CA 92040, United States",32.9120427,-116.8774837,tourist,California
108,Alpine,Mission Trails Regional Park,"1 Father Junipero Serra Trail, San Diego, CA 92119, United States",32.8179519,-117.05601,tourist,California
109,Alpine,Cuyamaca Rancho State Park,"14592-14674 CA-79, Julian, CA 92036, United States",32.9280287,-116.5678078,tourist,California
110,Alpine,SeaWorld San Diego,"500 Sea World Dr., San Diego, CA 92109, United States",32.7641326,-117.2262952,tourist,California
111,Alpine,Alpacas perlita,"9788 River Dr, Descanso, CA 91916, United States",32.8629703,-116.6168502,tourist,California
112,Alpine,San Pasqual Battlefield State Historic Park,"15808 San Pasqual Valley Rd, Escondido, CA 92027, United States",33.0884334,-116.9828546,tourist,California
113,Alpine,Al Pancho's Mexican Restaurant,"2139 Alpine Blvd, Alpine, CA 91901, United States",32.8354765,-116.7679342,restaurant,California
114,Alpine,Donato's Italian Restaurant,"2654 Alpine Blvd, Alpine, CA 91901, United States",32.8348906,-116.7568716,restaurant,California
115,Alpine,Janos Pizza,"2754 Alpine Blvd, Alpine, CA 91901, United States",32.834903,-116.7544549,restaurant,California
116,Alpine,Adriano's Pizza Grotto,"5005 Willows Rd STE 211, Alpine, CA 91901, United States",32.8408972,-116.70495,restaurant,California
117,Alpine,Alpine Tavern and Grill,"2502 Alpine Blvd, Alpine, CA 91901, United States",32.8351997,-116.7601618,restaurant,California
118,Alpine,Franco's Flapjacks - Is Now Called - Off The 8 Café,"1730 Alpine Blvd Suite 110, Alpine, CA 91901, United States",32.8385294,-116.7770821,restaurant,California
119,Alpine,Mediterraneo,"1347 Tavern Rd, Alpine, CA 91901, United States",32.8369512,-116.7777274,restaurant,California
120,Alpine,Marieta's Mexican Food,"2225 Alpine Blvd, Alpine, CA 91901, United States",32.8352918,-116.7658662,restaurant,California
121,Alpine,The Well Cafe,"1945 Alpine Blvd #2110, Alpine, CA 91901, United States",32.83672749999999,-116.7720423,restaurant,California
122,Alpine,Alpine Taco Shop,"1903-A, 1911 Alpine Blvd #2108, Alpine, CA 91901, United States",32.8370443,-116.7733313,restaurant,California
123,Alpine,Alpine Sushi & Grill,"1347 Tavern Rd # 28B, Alpine, CA 91901, United States",32.8370015,-116.777279,restaurant,California
124,Alpine,Casino Inn Bar & Grill,"1155 Alpine Blvd, Alpine, CA 91901, United States",32.8395828,-116.7899263,restaurant,California
125,Alpine,Grove Steakhouse,"5000 Willows Rd, Alpine, CA 91901, United States",32.8424692,-116.7053146,restaurant,California
126,Alpine,Salsa Mexican Food,"2710 Alpine Blvd, Alpine, CA 91901, United States",32.8349099,-116.7557008,restaurant,California
127,Alpine,Janet's Montana Cafe,"2506 Alpine Blvd, Alpine, CA 91901, United States",32.8351827,-116.7600119,restaurant,California
128,Alpine,Panda Machi,"1730 Alpine Blvd, Alpine, CA 91901, United States",32.8385799,-116.7773435,restaurant,California
129,Alpine,Mañana's Mexican Food,"1730 Alpine Blvd UNIT 112, Alpine, CA 91901, United States",32.8384174,-116.7768873,restaurant,California
130,Alpine,Ginger Noodle Bar,"5000 Willows Rd, Alpine, CA 91901, United States",32.8416509,-116.7057564,restaurant,California
131,Alpine,Jay's Southern Cafe,"2169 Arnold Way, Alpine, CA 91901, United States",32.8352505,-116.7671542,restaurant,California
132,Alpine,Diego's Mexican Food,"1140 Tavern Rd, Alpine, CA 91901, United States",32.8413548,-116.781074,restaurant,California
133,Alpine,Kaiser Permanente,"1830 Alpine Blvd, Alpine, CA 91901, United States",32.8382497,,heathcare,California
134,Alpine,San Ysidro Health Center,"1620 Alpine Blvd # 110, Alpine, CA 91901, United States",32.8384581,,heathcare,California
135,Alpine,Subway,"2963 Alpine Boulevard Suite 102, Alpine",32.8338325,-116.7496177,gym,California
136,Alpine,Janet's Montana Cafe,"2506 Alpine Boulevard, Alpine",32.8352268,-116.7600151,gym,California
137,Alpine,Mediterraneo,"1347 Tavern Road, Alpine",32.8369512,-116.7777274,gym,California
138,Alpine,Vinny's Pizza,"2754 Alpine Boulevard, Alpine",32.835,-116.7544444,gym,California
139,Alpine,Starbucks,"2963 Alpine Boulevard, Alpine",32.8338334,-116.7495797,gym,California
140,Alpine,Panda Machi,"1730 Alpine Boulevard, Alpine",32.8385885,-116.7773433,gym,California
141,Alpine,Jay's Southern Cafe,"2169 Arnold Way, Alpine",32.8352253,-116.7670631,gym,California
142,Alpine,Marieta's Mexican Food,"2225 Alpine Boulevard, Alpine",32.83529179999999,-116.7658662,gym,California
143,Alpine,McDonald's,"2959 Alpine Boulevard, Alpine",32.8341776,-116.7502378,gym,California
144,Alpine,Pizza Hut,"2710 Alpine Boulevard, Alpine",32.8349525,-116.7554584,gym,California
145,Alpine,Casino Inn Bar & Grill,"1155 Alpine Boulevard, Alpine",32.8395828,-116.7899263,gym,California
146,Alpine,Mañana's Mexican Food,"1730 Alpine Boulevard UNIT 112, Alpine",32.838419,-116.776793,gym,California
147,Alpine,La Carreta Mexican Restaurant,"1347 Tavern Road, Alpine",32.8370046,-116.7776816,gym,California
148,Alpine,Alpine Sushi & Grill,"1347 Tavern Road # 28B, Alpine",32.8370041,-116.7772788,gym,California
149,Alpine,Donato's Italian Restaurant,"2654 Alpine Boulevard, Alpine",32.83496739999999,-116.7568576,gym,California
150,Alpine,Alpine Taco Shop,"1903-A, 1911 Alpine Boulevard #2108, Alpine",32.8370443,-116.7733313,gym,California
151,Alpine,Little Caesars Pizza,"1730 Alpine Boulevard SUITE 204, Alpine",32.837975,-116.77717,gym,California
152,Alpine,Al Pancho's Mexican Restaurant,"2139 Alpine Boulevard, Alpine",32.83542070000001,-116.7679107,gym,California
153,Alpine,Tapatio's,"2335 Alpine Boulevard, Alpine",32.8352523,-116.763462,gym,California
154,Alpine,Carl's Jr.,"1263 Tavern Road, Alpine",32.8387423,-116.7781818,gym,California
155,Alpine,Subway,"2963 Alpine Boulevard Suite 102, Alpine",32.8338325,-116.7496177,restaurant,California
156,Alpine,Janet's Montana Cafe,"2506 Alpine Boulevard, Alpine",32.8352268,-116.7600151,restaurant,California
157,Alpine,Mediterraneo,"1347 Tavern Road, Alpine",32.8369512,-116.7777274,restaurant,California
158,Alpine,Vinny's Pizza,"2754 Alpine Boulevard, Alpine",32.835,-116.7544444,restaurant,California
159,Alpine,Starbucks,"2963 Alpine Boulevard, Alpine",32.8338334,-116.7495797,restaurant,California
160,Alpine,Panda Machi,"1730 Alpine Boulevard, Alpine",32.8385885,-116.7773433,restaurant,California
161,Alpine,Jay's Southern Cafe,"2169 Arnold Way, Alpine",32.8352253,-116.7670631,restaurant,California
162,Alpine,Marieta's Mexican Food,"2225 Alpine Boulevard, Alpine",32.83529179999999,-116.7658662,restaurant,California
163,Alpine,McDonald's,"2959 Alpine Boulevard, Alpine",32.8341776,-116.7502378,restaurant,California
164,Alpine,Pizza Hut,"2710 Alpine Boulevard, Alpine",32.8349525,-116.7554584,restaurant,California
165,Alpine,Casino Inn Bar & Grill,"1155 Alpine Boulevard, Alpine",32.8395828,-116.7899263,restaurant,California
166,Alpine,Mañana's Mexican Food,"1730 Alpine Boulevard UNIT 112, Alpine",32.838419,-116.776793,restaurant,California
167,Alpine,La Carreta Mexican Restaurant,"1347 Tavern Road, Alpine",32.8370046,-116.7776816,restaurant,California
168,Alpine,Alpine Sushi & Grill,"1347 Tavern Road # 28B, Alpine",32.8370041,-116.7772788,restaurant,California
169,Alpine,Donato's Italian Restaurant,"2654 Alpine Boulevard, Alpine",32.83496739999999,-116.7568576,restaurant,California
170,Alpine,Alpine Taco Shop,"1903-A, 1911 Alpine Boulevard #2108, Alpine",32.8370443,-116.7733313,restaurant,California
171,Alpine,Little Caesars Pizza,"1730 Alpine Boulevard SUITE 204, Alpine",32.837975,-116.77717,restaurant,California
172,Alpine,Al Pancho's Mexican Restaurant,"2139 Alpine Boulevard, Alpine",32.83542070000001,-116.7679107,restaurant,California
173,Alpine,Tapatio's,"2335 Alpine Boulevard, Alpine",32.8352523,-116.763462,restaurant,California
174,Alpine,Carl's Jr.,"1263 Tavern Road, Alpine",32.8387423,-116.7781818,restaurant,California
175,Alpine,Kaiser Permanente,"1830 Alpine Boulevard, Alpine",32.8382497,-116.775638,healthcare,California
176,Alpine,Comprehensive Medicine,"1832 Alpine Boulevard suite B, Alpine",32.8382906,-116.7752878,healthcare,California
177,Alpine,Alpine Special Treatment Center,"2120 Alpine Boulevard, Alpine",32.8367078,-116.7683781,healthcare,California
178,Alpine,San Ysidro Health Center,"1620 Alpine Boulevard # 110, Alpine",32.8384581,-116.7798912,healthcare,California
179,Amador,Kennedy Gold Mine Tours,"12594 Kennedy Mine Rd, Jackson, CA 95642, United States",38.3678976,-120.7802259,tourist,California
180,Amador,Miners' Bend Park,"29 Old Rte 49, Sutter Creek, CA 95685, United States",38.3894528,-120.8011167,tourist,California
181,Amador,Chaw Se' Roundhouse,"Pine Grove Volcano Rd, Sutter Creek, CA 95685, United States",38.4239401,-120.6439537,tourist,California
182,Amador,Black Chasm Cavern National Natural Landmark,"15701 Pioneer Volcano Rd, Volcano, CA 95689, United States",38.434278,-120.626471,tourist,California
183,Amador,Butte Store,"8040 CA-49, Jackson, CA 95642, United States",38.3256839,-120.7352158,tourist,California
184,Amador,Indian Grinding Rock State Historic Park,"14881 Pine Grove Volcano Rd, Pine Grove, CA 95665, United States",38.425104,-120.6408647,tourist,California
185,Amador,Peddler Hill Scenic Viewpoint,"CA-88, Pioneer, CA 95666, United States",38.5648794,-120.2661698,tourist,California
186,Amador,Knight Foundry,"81 Eureka St, Sutter Creek, CA 95685, United States",38.3934363,-120.799993,tourist,California
187,Amador,Bridal Veil Falls,"Pollock Pines, CA 95726, United States",38.7658449,-120.4903999,tourist,California
188,Amador,Moaning Caverns Adventure Park,"5350 Moaning Cave Rd, Vallecito, CA 95251, United States",38.06858,-120.465574,tourist,California
189,Amador,Marshall Gold Discovery State Historic Park,"310 Back St, Coloma, CA 95613, United States",38.8000647,-120.8923429,tourist,California
190,Amador,Preston Castle Foundation,"900 Palm Dr, Ione, CA 95640, United States",38.3613361,-120.9371272,tourist,California
191,Amador,Kennedy Tailing Wheels Park,"1200 N Main St, Jackson, CA 95642, United States",38.36293879999999,-120.7747111,tourist,California
192,Amador,Amador Whitney Museum,"Amador City, CA 95601, United States",38.4186746,-120.8241658,tourist,California
193,Amador,Andis Wines in Amador County,"11000 Shenandoah Rd, Plymouth, CA 95669, United States",38.5214988,-120.8182701,tourist,California
194,Amador,Henningsen Lotus Park,"950 Lotus Rd, Lotus, CA 95651, United States",38.8035704,-120.9076844,tourist,California
195,Amador,Mercer Caverns,"1665 Sheep Ranch Rd, Murphys, CA 95247, United States",38.1515152,-120.4782409,tourist,California
196,Amador,Calaveras Big Trees State Park,"1170 CA-4, Arnold, CA 95223, United States",38.2775178,-120.3092982,tourist,California
197,Amador,Folsom Powerhouse State Historic Park,"9980 Greenback Ln, Folsom, CA 95630, United States",38.6805029,-121.1758423,tourist,California
198,Amador,Railtown 1897 State Historic Park,"10501 Reservoir Rd, Jamestown, CA 95327, United States",37.9509246,-120.4175469,tourist,California
199,Amador,Small Town,"14179 Old Rte 49, Amador City, CA 95601, United States",38.4187512,-120.8244131,restaurant,California
200,Amador,Imperial Hotel & Restaurant,"14202 Old Highway 49, 14202 Main St, Amador City, CA 95601, United States",38.4192901,-120.8247712,restaurant,California
201,Amador,Element,"61 Hanford St, Sutter Creek, CA 95685, United States",38.3947761,-120.8038383,restaurant,California
202,Amador,"Bistro49 Southern Bites, Sutter Creek","15 Eureka St, Sutter Creek, CA 95685, United States",38.393084,-120.8021253,restaurant,California
203,Amador,Buffalo Chips,"76 Main St, Sutter Creek, CA 95685, United States",38.3943159,-120.8029235,restaurant,California
204,Amador,Cavana's Pub and Grub,"36 Main St, Sutter Creek, CA 95685, United States",38.3929461,-120.8026956,restaurant,California
205,Amador,Rosebud's Cafe,"26 Main St, Jackson, CA 95642, United States",38.34864049999999,-120.773702,restaurant,California
206,Amador,Tacos El Noa Noa,"Sutter Creek, CA 95685, United States",38.37576610000001,-120.8019288,restaurant,California
207,Amador,Giannini's Italian Dinners,"19845 CA-88, Pine Grove, CA 95665, United States",38.4134783,-120.6589723,restaurant,California
208,Amador,Sina's Backroads Café,"74 Main St, Sutter Creek, CA 95685, United States",38.3941105,-120.8030355,restaurant,California
209,Amador,Brickhouse Brews,"140 Main St, Jackson, CA 95642, United States",38.34942119999999,-120.7743777,restaurant,California
210,Amador,Wok and Roll Asian Kitchen,"19885 CA-88, Pine Grove, CA 95665, United States",38.4134982,-120.6580893,restaurant,California
211,Amador,Lone Wolf | Restaurant and Lounge,"12222 New York Ranch Rd, Jackson, CA 95642, United States",38.3865938,-120.7342271,restaurant,California
212,Amador,Highway House Restaurant,"627 CA-49, Jackson, CA 95642, United States",38.341774,-120.7663321,restaurant,California
213,Amador,La Esperanza | Mexican Food,"460 CA-49, Sutter Creek, CA 95685, United States",38.379213,-120.8018859,restaurant,California
214,Amador,Teresa's Place,"1235 Jackson Gate Rd, Jackson, CA 95642, United States",38.3658826,-120.7749975,restaurant,California
215,Amador,Hoist House by Amador Brewing Company,"20171 CA-88, Pine Grove, CA 95665, United States",38.4115271,-120.6524578,restaurant,California
216,Amador,Strings Italian Cafe,"11976 CA-88, Jackson, CA 95642, United States",38.3629019,-120.8025392,restaurant,California
217,Amador,Saluti's,"719 CA-49, Jackson, CA 95642, United States",38.341005,-120.7656133,restaurant,California
218,Amador,Sutter Creek Provisions,"78 Main St, Sutter Creek, CA 95685, United States",38.39447699999999,-120.803006,restaurant,California
219,Amador,Sutter Amador Hospital,"200 Mission Blvd, Jackson, CA 95642, United States",38.3501841,,heathcare,California
220,Amador,Sutter Medical Foundation,"815 Court St #7, Jackson, CA 95642, United States",38.3533298,,heathcare,California
221,Amador,Reynolds Sotomayor,"14570 S Frontage Rd, Manteca, CA 95336, United States",37.8303567,,heathcare,California
222,Amador,Subway,"1224 West Lathrop Road, Manteca",37.8255609,-121.2364085,gym,California
223,Amador,Subway,"1235 West Yosemite Avenue, Manteca",37.7983675,-121.2354105,gym,California
224,Amador,Subway,"1172 East Yosemite Avenue, Manteca",37.7967145,-121.1998658,gym,California
225,Amador,Mountain Mike's Pizza,"1120 North Main Street, Manteca",37.8122768,-121.2154751,gym,California
226,Amador,La Estrella Tacos & Seafood,"1361 East Yosemite Avenue, Manteca",37.79799630000001,-121.1948348,gym,California
227,Amador,Starbucks,"1451 Hulsey Way, Manteca",37.796993,-121.192086,gym,California
228,Amador,In-N-Out Burger,"1490 East Yosemite Avenue, Manteca",37.7971751,-121.1925582,gym,California
229,Amador,Subway,"1186 North Main Street, Manteca",37.81388879999999,-121.2166426,gym,California
230,Amador,Applebee's Grill + Bar,"1272 East Yosemite Avenue, Manteca",37.7970706,-121.1967698,gym,California
231,Amador,Little Caesars Pizza,"353 West Louise Avenue, Manteca",37.812268,-121.2205947,gym,California
232,Amador,Hong Kong Restaurant,"430 North Main Street, Manteca",37.80376399999999,-121.216362,gym,California
233,Amador,Panda Express,"1467 Hulsey Way, Manteca",37.7964363,-121.1917496,gym,California
234,Amador,Carl's Jr.,"990 North Main Street, Manteca",37.8110064,-121.2165978,gym,California
235,Amador,Rookies Sports Bar & Grill,"1251 East Yosemite Avenue, Manteca",37.7984314,-121.1977094,gym,California
236,Amador,Taqueria la Playa,"1247 East Louise Avenue, Manteca",37.8127257,-121.1981108,gym,California
237,Amador,Save Mart,"1172 North Main Street, Manteca",37.813236,-121.215424,gym,California
238,Amador,The Cajun Spot,"283 West Louise Avenue, Manteca",37.8125649,-121.2197395,gym,California
239,Amador,Kitty's Kitchen,"532 North Main Street, Manteca",37.80528299999999,-121.21614,gym,California
240,Amador,Pizza & Pints Pizzeria,"449 North Main Street, Manteca",37.80452699999999,-121.2175145,gym,California
241,Amador,Domino's Pizza,"107 West North Street #101, Manteca",37.8011462,-121.216806,gym,California
242,Amador,Subway,"1224 West Lathrop Road, Manteca",37.8255609,-121.2364085,restaurant,California
243,Amador,Subway,"1235 West Yosemite Avenue, Manteca",37.7983675,-121.2354105,restaurant,California
244,Amador,Subway,"1172 East Yosemite Avenue, Manteca",37.7967145,-121.1998658,restaurant,California
245,Amador,Mountain Mike's Pizza,"1120 North Main Street, Manteca",37.8122768,-121.2154751,restaurant,California
246,Amador,La Estrella Tacos & Seafood,"1361 East Yosemite Avenue, Manteca",37.79799630000001,-121.1948348,restaurant,California
247,Amador,Starbucks,"1451 Hulsey Way, Manteca",37.796993,-121.192086,restaurant,California
248,Amador,In-N-Out Burger,"1490 East Yosemite Avenue, Manteca",37.7971751,-121.1925582,restaurant,California
249,Amador,Subway,"1186 North Main Street, Manteca",37.81388879999999,-121.2166426,restaurant,California
250,Amador,Applebee's Grill + Bar,"1272 East Yosemite Avenue, Manteca",37.7970706,-121.1967698,restaurant,California
251,Amador,Little Caesars Pizza,"353 West Louise Avenue, Manteca",37.812268,-121.2205947,restaurant,California
252,Amador,Hong Kong Restaurant,"430 North Main Street, Manteca",37.80376399999999,-121.216362,restaurant,California
253,Amador,Panda Express,"1467 Hulsey Way, Manteca",37.7964363,-121.1917496,restaurant,California
254,Amador,Carl's Jr.,"990 North Main Street, Manteca",37.8110064,-121.2165978,restaurant,California
255,Amador,Rookies Sports Bar & Grill,"1251 East Yosemite Avenue, Manteca",37.7984314,-121.1977094,restaurant,California
256,Amador,Taqueria la Playa,"1247 East Louise Avenue, Manteca",37.8127257,-121.1981108,restaurant,California
257,Amador,Save Mart,"1172 North Main Street, Manteca",37.813236,-121.215424,restaurant,California
258,Amador,The Cajun Spot,"283 West Louise Avenue, Manteca",37.8125649,-121.2197395,restaurant,California
259,Amador,Kitty's Kitchen,"532 North Main Street, Manteca",37.80528299999999,-121.21614,restaurant,California
260,Amador,Pizza & Pints Pizzeria,"449 North Main Street, Manteca",37.80452699999999,-121.2175145,restaurant,California
261,Amador,Domino's Pizza,"107 West North Street #101, Manteca",37.8011462,-121.216806,restaurant,California
262,Amador,Doctors Hospital of Manteca,"1205 East North Street, Manteca",37.8015318,-121.1973294,healthcare,California
263,Amador,Planned Parenthood - Manteca Health Center,"965 East Yosemite Avenue # 2, Manteca",37.7976622,-121.203641,healthcare,California
264,Amador,DaVita Manteca Dialysis,"1620 West Yosemite Avenue, Manteca",37.796005,-121.242863,healthcare,California
265,Amador,DaVita Yosemite Street Dialysis Center,"1650 West Yosemite Avenue, Manteca",37.796238,-121.243745,healthcare,California
266,Amador,California Urgent Care Center Manteca,"411 East Yosemite Avenue, Manteca",37.79783009999999,-121.2123293,healthcare,California
267,Amador,Gastrointestinal And Liver Diseases Center,"210 North Fremont Avenue, Manteca",37.7992003,-121.209379,healthcare,California
268,Amador,Yosemite Medical Arts,"1140-1148 Norman Drive, Manteca",37.79345319999999,-121.1997299,healthcare,California
269,Amador,FCPP Multi-Specialty,"1144 Norman Drive Suite 203, Manteca",37.7933467,-121.1994964,healthcare,California
270,Amador,Delta Vet Center,"1327 Historical Plaza Way, Manteca",37.7965074,-121.1956672,healthcare,California
271,Amador,Naadi Healthcare Manteca,"145 Trevino Avenue, Manteca",37.79838230000001,-121.2408617,healthcare,California
272,Amador,Dr. Modi Office,"165 Saint Dominics Drive, Manteca",37.7988187,-121.2457822,healthcare,California
273,Amador,Kaiser Permanente Manteca Medical Center,"1777 West Yosemite Avenue, Manteca",37.7980209,-121.2458522,healthcare,California
274,Amador,Reynolds Sotomayor,"14570 South Frontage Road, Manteca",37.8303567,-121.2168916,healthcare,California
275,Amador,Crothall Laundry Services,"2365 Airport Way, Manteca",37.831002,-121.2547092,healthcare,California
276,Butte,Hollow Falls,"Butte Valley, CA 95965, United States",39.5948415,-121.5526308,tourist,California
277,Butte,Butte Creek Watershed Overlook,"4117 Skyway, Paradise, CA 95969, United States",39.7314371,-121.6843095,tourist,California
278,Butte,North Table Mountain Ecological Reserve,"2488 Cherokee Rd, Oroville, CA 95965, United States",39.5980037,-121.5556526,tourist,California
279,Butte,Honey Run Covered Bridge,"1670 Honey Run Rd, Chico, CA 95928, United States",39.7284667,-121.703475,tourist,California
280,Butte,Feather River Canyon,"CA-70, Oroville, CA 95965, United States",39.847624,-121.394055,tourist,California
281,Butte,Upper Bidwell Park,"Old Chico Canyon Rd, Chico, CA 95928, United States",39.780293,-121.748042,tourist,California
282,Butte,Gold Nugget Museum,"475 Pearson Rd, Paradise, CA 95969, United States",39.7525768,-121.6164907,tourist,California
283,Butte,Phantom Falls,"Oroville, CA 95965, United States",39.61051459999999,-121.5607301,tourist,California
284,Butte,Paradise Depot Museum,"Paradise Community Park, 5570 Black Olive Dr, Paradise, CA 95969, United States",39.7529405,-121.6236845,tourist,California
285,Butte,Bath House Museum & Feather River Nature Center / Native Plant Park,"Old Ferry Rd, Oroville, CA 95965, United States",39.5178238,-121.5477531,tourist,California
286,Butte,Bidwell Mansion | State Historic Park,"525 Esplanade, Chico, CA 95926, United States",39.7323566,-121.8435715,tourist,California
287,Butte,Bermuda Falls,"Butte Valley, CA 95965, United States",39.5438782,-121.5098127,tourist,California
288,Butte,Bidwell Park One-Mile,"300 South Park Drive, Chico, CA 95928, United States",39.735931,-121.8298647,tourist,California
289,Butte,Mother Orange Tree of Butte County,"400 Glen Dr, Oroville, CA 95966, United States",39.5108054,-121.5042483,tourist,California
290,Butte,Bille Park,"501 Bille Rd, Paradise, CA 95969, United States",39.7708088,-121.6322098,tourist,California
291,Butte,Stansbury Home,"307 W 5th St #5505, Chico, CA 95928, United States",39.72673959999999,-121.8399216,tourist,California
292,Butte,Patrick Ranch Museum,"10381 Midway, Chico, CA 95928, United States",39.6831424,-121.8005824,tourist,California
293,Butte,National Yo-Yo Museum,"320 Broadway St, Chico, CA 95928, United States",39.728479,-121.8406059,tourist,California
294,Butte,Butte Store,"8040 CA-49, Jackson, CA 95642, United States",38.3256839,-120.7352158,tourist,California
295,Butte,Friendship Park,"5560 State Hwy 20, Browns Valley, CA 95918, United States",39.229544,-121.40088,tourist,California
296,Butte,5th Street Steakhouse,"345 W 5th St, Chico, CA 95928, United States",39.726389,-121.84043,restaurant,California
297,Butte,Red Tavern,"1250 Esplanade, Chico, CA 95926, United States",39.7396706,-121.8465965,restaurant,California
298,Butte,Nic's,"6256 Skyway, Paradise, CA 95969, United States",39.7564236,-121.6257681,restaurant,California
299,Butte,Dulce Cocina,"6505 Skyway suite a, Paradise, CA 95969, United States",39.7597089,-121.624321,restaurant,California
300,Butte,Pho Bonsa,"221 Normal Ave B, Chico, CA 95928, United States",39.728018,-121.8423016,restaurant,California
301,Butte,Happy Day,"14455 Skyway, Magalia, CA 95954, United States",39.8329189,-121.5971923,restaurant,California
302,Butte,Burban Kitchen,"1925 Market Pl #100, Chico, CA 95928, United States",39.7286434,-121.7949594,restaurant,California
303,Butte,Tabletop Restaurant and Catering,"109 Table Mountain Blvd, Oroville, CA 95966, United States",39.5219911,-121.5560026,restaurant,California
304,Butte,Robbie's Paradise Burgers,"7099 Skyway, Paradise, CA 95969, United States",39.7657387,-121.6174001,restaurant,California
305,Butte,Pho Le,"2201 Pillsbury Rd, Chico, CA 95926, United States",39.7568704,-121.8476191,restaurant,California
306,Butte,Pueblito #2 Mexican Restaurant,"2365 Esplanade, Chico, CA 95926, United States",39.7535114,-121.8586183,restaurant,California
307,Butte,Authentic Thai Cuisine of Paradise,"6689 Skyway, Paradise, CA 95969, United States",39.7616824,-121.6230957,restaurant,California
308,Butte,La Dolce Piazza,"3211 Cohasset Rd, Chico, CA 95973, United States",39.774273,-121.8441526,restaurant,California
309,Butte,Mekkala Thai Cuisine,"1196 E Lassen Ave Suite 110, Chico, CA 95973, United States",39.7740243,-121.8442073,restaurant,California
310,Butte,Crush,"201 Broadway St STE 200, Chico, CA 95928, United States",39.7297018,-121.8407675,restaurant,California
311,Butte,Ethan's Eatery,"2275 Myers St, Oroville, CA 95966, United States",39.5072175,-121.5511093,restaurant,California
312,Butte,Debbie's Restaurant,"7967 Skyway A, Paradise, CA 95969, United States",39.774995,-121.6100914,restaurant,California
313,Butte,Big Hot Crab,"701 Main St, Chico, CA 95928, United States",39.7268688,-121.8362341,restaurant,California
314,Butte,Cocodine | Thai Cuisine,"2485 Notre Dame Blvd #250, Chico, CA 95928, United States",39.7175924,-121.7934608,restaurant,California
315,Butte,B Street Public House,"117 Broadway St, Chico, CA 95928, United States",39.7303398,-121.8416181,restaurant,California
316,Butte,Shasta Regional Medical Center,"1100 Butte St, Redding, CA 96001, United States",40.5853911,,heathcare,California
317,Butte,Oroville Hospital,"2767 Olive Hwy, Oroville, CA 95966, United States",39.5061427,,heathcare,California
318,Butte,Plumas District Hospital,"1065 Bucks Lake Rd, Quincy, CA 95971, United States",39.9396097,,heathcare,California
319,Butte,Historic Rheingan's Hospital 1946-1966,"Paradise, CA 95969, United States",39.7516574,,heathcare,California
320,Butte,Dignity health hospital,"2526 Sister Mary Columba Dr, Red Bluff, CA 96080, United States",40.1495499,,heathcare,California
321,Butte,Orchard Hospital,"240 Spruce St, Gridley, CA 95948, United States",39.3679716,,heathcare,California
322,Butte,Adventist Health Feather River,"5974 Pentz Rd, Paradise, CA 95969, United States",39.7464325,,heathcare,California
323,Butte,Dignity Health - Glendale Memorial Hospital and Health Center,"1420 S Central Ave, Glendale, CA 91204, United States",34.1280598,,heathcare,California
324,Butte,Woodland Memorial Hospital,"1325 Cottonwood St, Woodland, CA 95695, United States",38.6648736,,heathcare,California
325,Butte,Dignity Health - Community Hospital of San Bernardino,"1805 Medical Center Dr, San Bernardino, CA 92411, United States",34.1314585,,heathcare,California
326,Butte,St. Elizabeth Community Hospital,"2550 Sister Mary Columba Dr, Red Bluff, CA 96080, United States",40.1485519,,heathcare,California
327,Butte,Memorial Hospital - Bakersfield,"420 34th St, Bakersfield, CA 93301, United States",35.3914547,,heathcare,California
328,Butte,Glenn Medical Center - Rehabilitation Services,"1133 W Sycamore St, Willows, CA 95988, United States",39.5214377,,heathcare,California
329,Butte,Sierra Nevada Memorial Hospital,"155 Glasson Way, Grass Valley, CA 95945, United States",39.2280233,,heathcare,California
330,Butte,St. Joseph's Medical Center,"1800 N California St, Stockton, CA 95204, United States",37.9701328,,heathcare,California
331,Butte,Whittier Hospital Medical Center,"9080 Colima Rd, Whittier, CA 90605, United States",33.9500191,,heathcare,California
332,Butte,Department of Behavioral Health: Psychiatric Health Facility,"592 Rio Lindo Ave, Chico, CA 95926, United States",39.7544575,,heathcare,California
333,Butte,Southern California Hospital at Hollywood,"6245 De Longpre Ave, Los Angeles, CA 90028, United States",34.0964202,,heathcare,California
334,Butte,Sutter Surgical Hospital North Valley,"455 Plumas Blvd, Yuba City, CA 95991, United States",39.1320465,,heathcare,California
335,Butte,Dignity Health - California Hospital Medical Center,"1401 S Grand Ave, Los Angeles, CA 90015, United States",34.0375121,,heathcare,California
336,Butte,E-Central Downtown Los Angeles Hotel,"1020 South Figueroa Street, Los Angeles",34.0443197,-118.2641283,gym,California
337,Butte,Gill's Cuisine of India,"838 South Grand Avenue, Los Angeles",34.0447555,-118.2585503,gym,California
338,Butte,Bottega Louie,"700 South Grand Avenue, Los Angeles",34.0470524,-118.2565439,gym,California
339,Butte,Drago Centro,"525 Flower Street, Los Angeles",34.051234,-118.257327,gym,California
340,Butte,Perch,"448 South Hill Street, Los Angeles",34.0489961,-118.2514107,gym,California
341,Butte,Library Bar,"630 West 6th Street suite 116 a, Los Angeles",34.0491361,-118.2564556,gym,California
342,Butte,The Palm - L.A. Downtown,"1100 Flower Street, Los Angeles",34.0424955,-118.2638999,gym,California
343,Butte,Water Grill Restaurant,"544 South Grand Avenue, Los Angeles",34.0490403,-118.2547066,gym,California
344,Butte,Takami Sushi & Robata,"811 Wilshire Boulevard #2100, Los Angeles",34.0497601,-118.2582461,gym,California
345,Butte,Yard House,"800 West Olympic Boulevard A-115, Los Angeles",34.04512,-118.2657,gym,California
346,Butte,The Original Pantry Cafe,"877 South Figueroa Street, Los Angeles",34.0463704,-118.2629158,gym,California
347,Butte,Cicada Restaurant and Lounge,"617 South Olive Street, Los Angeles",34.04779699999999,-118.2547572,gym,California
348,Butte,Engine Co. No. 28,"644 South Figueroa Street, Los Angeles",34.0497471,-118.2593775,gym,California
349,Butte,Nickel Diner,"524 South Main Street, Los Angeles",34.0459878,-118.2489144,gym,California
350,Butte,SUGARFISH by sushi nozawa,"600 West 7th Street #150, Los Angeles",34.04737770000001,-118.2570203,gym,California
351,Butte,Cole's French Dip,"118 East 6th Street, Los Angeles",34.0447898,-118.2495086,gym,California
352,Butte,Casey's Irish Pub,"613 South Grand Avenue, Los Angeles",34.04848080000001,-118.2557888,gym,California
353,Butte,Katsuya,"800 West Olympic Boulevard STE 220, Los Angeles",34.0447954,-118.2652703,gym,California
354,Butte,Fashion Bistro,"908 Santee Street, Los Angeles",34.0397605,-118.2535038,gym,California
355,Butte,Bar Amá,"FARMERS AND MERCHANTS BANK BUILDING, 118 4th Street, Los Angeles",34.0484148,-118.2479281,gym,California
356,Butte,E-Central Downtown Los Angeles Hotel,"1020 South Figueroa Street, Los Angeles",34.0443197,-118.2641283,restaurant,California
357,Butte,Gill's Cuisine of India,"838 South Grand Avenue, Los Angeles",34.0447555,-118.2585503,restaurant,California
358,Butte,Bottega Louie,"700 South Grand Avenue, Los Angeles",34.0470524,-118.2565439,restaurant,California
359,Butte,Drago Centro,"525 Flower Street, Los Angeles",34.051234,-118.257327,restaurant,California
360,Butte,Perch,"448 South Hill Street, Los Angeles",34.0489961,-118.2514107,restaurant,California
361,Butte,Library Bar,"630 West 6th Street suite 116 a, Los Angeles",34.0491361,-118.2564556,restaurant,California
362,Butte,The Palm - L.A. Downtown,"1100 Flower Street, Los Angeles",34.0424955,-118.2638999,restaurant,California
363,Butte,Water Grill Restaurant,"544 South Grand Avenue, Los Angeles",34.0490403,-118.2547066,restaurant,California
364,Butte,Takami Sushi & Robata,"811 Wilshire Boulevard #2100, Los Angeles",34.0497601,-118.2582461,restaurant,California
365,Butte,Yard House,"800 West Olympic Boulevard A-115, Los Angeles",34.04512,-118.2657,restaurant,California
366,Butte,The Original Pantry Cafe,"877 South Figueroa Street, Los Angeles",34.0463704,-118.2629158,restaurant,California
367,Butte,Cicada Restaurant and Lounge,"617 South Olive Street, Los Angeles",34.04779699999999,-118.2547572,restaurant,California
368,Butte,Engine Co. No. 28,"644 South Figueroa Street, Los Angeles",34.0497471,-118.2593775,restaurant,California
369,Butte,Nickel Diner,"524 South Main Street, Los Angeles",34.0459878,-118.2489144,restaurant,California
370,Butte,SUGARFISH by sushi nozawa,"600 West 7th Street #150, Los Angeles",34.04737770000001,-118.2570203,restaurant,California
371,Butte,Cole's French Dip,"118 East 6th Street, Los Angeles",34.0447898,-118.2495086,restaurant,California
372,Butte,Casey's Irish Pub,"613 South Grand Avenue, Los Angeles",34.04848080000001,-118.2557888,restaurant,California
373,Butte,Katsuya,"800 West Olympic Boulevard STE 220, Los Angeles",34.0447954,-118.2652703,restaurant,California
374,Butte,Fashion Bistro,"908 Santee Street, Los Angeles",34.0397605,-118.2535038,restaurant,California
375,Butte,Bar Amá,"FARMERS AND MERCHANTS BANK BUILDING, 118 4th Street, Los Angeles",34.0484148,-118.2479281,restaurant,California
376,Butte,PIH Health Good Samaritan Hospital,"1225 Wilshire Boulevard, Los Angeles",34.0544036,-118.2649564,healthcare,California
377,Butte,Dignity Health - California Hospital Medical Center,"1401 South Grand Avenue, Los Angeles",34.03751209999999,-118.2662568,healthcare,California
378,Butte,Kaiser Permanente Mental Health Center,"765 West College Street, Los Angeles",34.0664722,-118.2436626,healthcare,California
379,Butte,VA Los Angeles Clinic: Blumfield Gene MD,"351 East Temple Street, Los Angeles",34.0521322,-118.2382385,healthcare,California
380,Butte,DaVita Wilshire Dialysis Center,"1212 Wilshire Boulevard, Los Angeles",34.0529712,-118.2654808,healthcare,California
381,Butte,St. Thomas Hospital Group,"700 Wilshire Boulevard, Los Angeles",34.048684,-118.2575278,healthcare,California
382,Butte,Cedars-Sinai Los Angeles Cardiology Associates,"1245 Wilshire Boulevard # 703, Los Angeles",34.0541545,-118.2658859,healthcare,California
383,Butte,Leavey Trauma Center - California Hospital Medical Center,"1338 South Hope Street, Los Angeles",34.03580609999999,-118.266024,healthcare,California
384,Butte,Angeles Medical Clinic,"1333 South Hill Street, Los Angeles",34.03701959999999,-118.2631462,healthcare,California
385,Butte,Pacific VascuCare,"1660 West 3rd Street, Los Angeles",34.060494,-118.267493,healthcare,California
386,Butte,DaVita Washington Plaza Dialysis Center,"516 East Washington Boulevard #522, Los Angeles",34.028284,-118.2599791,healthcare,California
387,Butte,Dr habib baloch,"106 West 1st Street, Los Angeles",34.0521691,-118.2437176,healthcare,California
388,Butte,Disability Dr office,Los Angeles,34.05220509999999,-118.2437121,healthcare,California
389,Butte,USC University Hospital Keck School of Neurology,Los Angeles,34.0522116,-118.2437061,healthcare,California
390,Butte,Rennie Joe Wood,Los Angeles,34.0522116,-118.2437061,healthcare,California
391,Butte,Craig Austin Rohde,Los Angeles,34.0522116,-118.2437061,healthcare,California
392,Butte,LAMC,Los Angeles,34.0522008,-118.2436893,healthcare,California
393,Butte,Downtown LA VA Clinic,"312 East Temple Street, Los Angeles",34.05137029999999,-118.2396971,healthcare,California
394,Butte,LA ACC Veteran’s Affairs,"351 East Temple Street, Los Angeles",34.0520292,-118.2385001,healthcare,California
395,Butte,UCLA Health Primary and Specialty Care,"750 West 7th Street, Los Angeles",34.0477529,-118.2586667,healthcare,California
396,Calaveras,Black Chasm Cavern National Natural Landmark,"15701 Pioneer Volcano Rd, Volcano, CA 95689, United States",38.434278,-120.626471,tourist,California
397,Calaveras,Moaning Caverns Adventure Park,"5350 Moaning Cave Rd, Vallecito, CA 95251, United States",38.06858,-120.465574,tourist,California
398,Calaveras,Mercer Caverns,"1665 Sheep Ranch Rd, Murphys, CA 95247, United States",38.1515152,-120.4782409,tourist,California
399,Calaveras,Calaveras Big Trees State Park,"1170 CA-4, Arnold, CA 95223, United States",38.2775178,-120.3092982,tourist,California
400,Calaveras,Angels Camp Museum,"753 S Main St, Angels Camp, CA 95222, United States",38.0756662,-120.5458013,tourist,California
401,Calaveras,Parrott's Ferry,"66034005, Angels Camp, CA 95222, United States",38.0395231,-120.456412,tourist,California
402,Calaveras,Calaveras County Museum and Historical Society,"30 Main St, San Andreas, CA 95249, United States",38.1966966,-120.6806827,tourist,California
403,Calaveras,San Antonio Creek Falls,"Sierra nevada, Arnold, CA 95223, United States",38.258109,-120.3853484,tourist,California
404,Calaveras,Indian Grinding Rock State Historic Park,"14881 Pine Grove Volcano Rd, Pine Grove, CA 95665, United States",38.425104,-120.6408647,tourist,California
405,Calaveras,Chaw Se' Roundhouse,"Pine Grove Volcano Rd, Sutter Creek, CA 95685, United States",38.4239401,-120.6439537,tourist,California
406,Calaveras,Mark Twain Cabin,"20788 Jackass Hill Rd, Sonora, CA 95370, United States",37.9992765,-120.4769493,tourist,California
407,Calaveras,Red Barn Museum,"891 Mountain Ranch Rd, San Andreas, CA 95249, United States",38.1893831,-120.6657993,tourist,California
408,Calaveras,Angels Camp (California Historical Landmark No. 287),"S Main St &, Birds Way, Angels Camp, CA 95222, United States",38.0684826,-120.5393088,tourist,California
409,Calaveras,Gold Rush Originals,"1227 S Main St, Angels Camp, CA 95222, United States",38.0694498,-120.5399226,tourist,California
410,Calaveras,Top of the World,"Manual Peak Rd, Arnold, CA 95223, United States",38.2398467,-120.3874431,tourist,California
411,Calaveras,Railtown 1897 State Historic Park,"10501 Reservoir Rd, Jamestown, CA 95327, United States",37.9509246,-120.4175469,tourist,California
412,Calaveras,Columbia State Historic Park,"11259 Jackson St, Columbia, CA 95310, United States",38.0357435,-120.400165,tourist,California
413,Calaveras,Sierra Nevada Logging Museum,"2148 Dunbar Rd, Arnold, CA 95223, United States",38.265842,-120.3443753,tourist,California
414,Calaveras,Kennedy Gold Mine Tours,"12594 Kennedy Mine Rd, Jackson, CA 95642, United States",38.3678976,-120.7802259,tourist,California
415,Calaveras,Butte Store,"8040 CA-49, Jackson, CA 95642, United States",38.3256839,-120.7352158,tourist,California
416,Calaveras,Cascabel Restaurant,"1252 S Main St, Angels Camp, CA 95222, United States",38.0690248,-120.5399455,restaurant,California
417,Calaveras,Sarafina's Italian Kitchen,"794 CA-4, Arnold, CA 95223, United States",38.2571003,-120.3461498,restaurant,California
418,Calaveras,Red Ridge Restaurant,"1259 S Main St, Angels Camp, CA 95222, United States",38.06907,-120.5395581,restaurant,California
419,Calaveras,"V Restaurant, Bistro & Bar","402 Main St Suite L, Murphys, CA 95247, United States",38.1379711,-120.4640672,restaurant,California
420,Calaveras,Rossetti's at The 19th Hole,"4462 CA-4, Avery, CA 95222, United States",38.2054973,-120.3696947,restaurant,California
421,Calaveras,Verona18,"1001 Saddle Creek Dr, Copperopolis, CA 95228, United States",37.9174177,-120.6375686,restaurant,California
422,Calaveras,Round Table Pizza,"27 N Main St Ste B, Angels Camp, CA 95222, United States",38.0821845,-120.5600297,restaurant,California
423,Calaveras,El Vaquero,"925 CA-4, Arnold, CA 95223, United States",38.2560698,-120.3487454,restaurant,California
424,Calaveras,Rob's Place,"140 Main St, Murphys, CA 95247, United States",38.137448,-120.458803,restaurant,California
425,Calaveras,Griff's BBQ & Grill,"304 Town Square Rd, Copperopolis, CA 95228, United States",37.9722235,-120.6525894,restaurant,California
426,Calaveras,Dogwood,"1224 Oak Cir suite b, Arnold, CA 95223, United States",38.2546292,-120.3537176,restaurant,California
427,Calaveras,Camps Restaurant,"711 McCauley Ranch Rd, Angels Camp, CA 95222, United States",38.0663408,-120.5542793,restaurant,California
428,Calaveras,Mary's Taco Truck,"300 N Main St, Angels Camp, CA 95222, United States",38.085659,-120.5645523,restaurant,California
429,Calaveras,Gabby's cuisine,"260 Jones St, Murphys, CA 95247, United States",38.1372327,-120.4616425,restaurant,California
430,Calaveras,Firewood,"420 Main St, Murphys, CA 95247, United States",38.1377561,-120.4644803,restaurant,California
431,Calaveras,Grounds,"402 Main St, Murphys, CA 95247, United States",38.1377488,-120.464296,restaurant,California
432,Calaveras,La Hacienda Restaurant,"51 N Main St suite d, Angels Camp, CA 95222, United States",38.0821456,-120.5610122,restaurant,California
433,Calaveras,Copper Cove Restaurant,"42 Copper Cove Dr, Copperopolis, CA 95228, United States",37.9402819,-120.6067077,restaurant,California
434,Calaveras,Frosty,"290 S Main St, Angels Camp, CA 95222, United States",38.0792433,-120.5548256,restaurant,California
435,Calaveras,Angels Creek Café,"1246 S Main St, Angels Camp, CA 95222, United States",38.0691123,-120.539946,restaurant,California
436,Calaveras,Mark Twain Medical Center,"768 Mountain Ranch Rd, San Andreas, CA 95249, United States",38.1903473,,heathcare,California
437,Calaveras,Outpatient Specialty Center,"700 Mountain Ranch Rd, San Andreas, CA 95249, United States",38.1890203,,heathcare,California
438,Calaveras,Sutter Amador Hospital,"200 Mission Blvd, Jackson, CA 95642, United States",38.3501841,,heathcare,California
439,Calaveras,Angels Camp Family Medical Center,"445 S Main St, Angels Camp, CA 95222, United States",38.0782089,,heathcare,California
440,Calaveras,Sutter Medical Foundation,"815 Court St #7, Jackson, CA 95642, United States",38.3533298,,heathcare,California
441,Calaveras,Greenley Oaks Medical Center,"940 Sylva Ln, Sonora, CA 95370, United States",37.9877395,,heathcare,California
442,Calaveras,Unit Six,"Sierra Care Center, #6, Sonora, CA 95370, United States",37.9786709,,heathcare,California
443,Calaveras,Adventist Health Sonora,"1000 Greenley Rd, Sonora, CA 95370, United States",37.9773468,,heathcare,California
444,Calaveras,Oak Valley Hospital,"350 S Oak Ave, Oakdale, CA 95361, United States",37.7571674,,heathcare,California
445,Calaveras,Emanuel Medical Center,"825 Delbon Ave, Turlock, CA 95382, United States",37.51217889999999,,heathcare,California
446,Calaveras,Reynolds Sotomayor,"14570 S Frontage Rd, Manteca, CA 95336, United States",37.8303567,,heathcare,California
447,Calaveras,Sutter Health Central Valley Region,"1200 Scenic Dr, Modesto, CA 95350, United States",37.6480817,,heathcare,California
448,Calaveras,Health Services Agency,"3109 E Whitmore Ave, Ceres, CA 95307, United States",37.5951989,,heathcare,California
449,Calaveras,San Joaquin General Hospital,"500 W Hospital Rd, French Camp, CA 95231, United States",37.8862805,,heathcare,California
450,Calaveras,Eureka California,"10683 White Rock Rd, Rancho Cordova, CA 95670, United States",38.587691,,heathcare,California
451,Calaveras,Joaquim Hospital Stockton,"Cesar Chavez Rd, French Camp, CA 95231, United States",37.88579000000001,,heathcare,California
452,Calaveras,San Joaquin General Hospital,"Tracy, CA 95376, United States",37.7395639,,heathcare,California
453,Calaveras,Adventist Health Dameron,"525 Acacia St, Stockton, CA 95203, United States",37.9616219,,heathcare,California
454,Calaveras,St-Joseph's Medical Center,"Lodi, CA 95240, United States",38.1301427,,heathcare,California
455,Calaveras,Vibra Hospital of Sacramento,"330 Montrose Dr, Folsom, CA 95630, United States",38.681136,,heathcare,California
456,Calaveras,Visconti's Ristorante,"2700 East Bidwell Street #700, Folsom",38.6569845,-121.125199,gym,California
457,Calaveras,Scott's Seafood Roundhouse,"824 Sutter Street, Folsom",38.67657589999999,-121.1787488,gym,California
458,Calaveras,Sutter Street Steakhouse,"604 Sutter Street, Folsom",38.6786186,-121.1755578,gym,California
459,Calaveras,The Boardwalk,"9426 Greenback Lane, Orangevale",38.6778685,-121.2015325,gym,California
460,Calaveras,Subway,"195 Blue Ravine Road Suite 300, Folsom",38.6542695,-121.1796185,gym,California
461,Calaveras,Little Caesars Pizza,"605 East Bidwell Street, Folsom",38.67193,-121.1641,gym,California
462,Calaveras,Subway,"9500 Greenback Lane #31, Folsom",38.6775977,-121.1992551,gym,California
463,Calaveras,FLB Sports Bar,"511 East Bidwell Street, Folsom",38.67288919999999,-121.1653555,gym,California
464,Calaveras,Karen's Bakery,"705 Gold Lake Drive, Folsom",38.67725679999999,-121.1798394,gym,California
465,Calaveras,Pete's Restaurant & Brewhouse - Folsom,"6608 Folsom-Auburn Road, Folsom",38.6863188,-121.1793449,gym,California
466,Calaveras,BJ's Restaurant & Brewhouse,"2730 East Bidwell Street, Folsom",38.6562974,-121.1241343,gym,California
467,Calaveras,Mario's Early Toast,"25075 Blue Ravine Road, Folsom",38.689393,-121.1214861,gym,California
468,Calaveras,Sunny Garden Restaurant,"25085 Blue Ravine Road, Folsom",38.6897083,-121.1205,gym,California
469,Calaveras,Mylapore South Indian Vegetarian,"1760 Prairie City Road #100, Folsom",38.65138650000001,-121.1655129,gym,California
470,Calaveras,Mountain Mike's Pizza,"717 East Bidwell Street Suite 4, Folsom",38.66964309999999,-121.1602218,gym,California
471,Calaveras,Manderes,"1004 East Bidwell Street Ste 600, Folsom",38.6706333,-121.1550413,gym,California
472,Calaveras,Ruchi Indian Cuisine,"601 East Bidwell Street #3120, Folsom",38.6724813,-121.1636964,gym,California
473,Calaveras,Ciro's Pizza Café,"1300 East Bidwell Street #120, Folsom",38.6693077,-121.151062,gym,California
474,Calaveras,Coffee Republic,"6610 Folsom-Auburn Road #2, Folsom",38.6864948,-121.1792087,gym,California
475,Calaveras,Starbucks,"500 Natoma Station Drive, Folsom",38.655201,-121.178363,gym,California
476,Calaveras,Visconti's Ristorante,"2700 East Bidwell Street #700, Folsom",38.6569845,-121.125199,restaurant,California
477,Calaveras,Scott's Seafood Roundhouse,"824 Sutter Street, Folsom",38.67657589999999,-121.1787488,restaurant,California
478,Calaveras,Sutter Street Steakhouse,"604 Sutter Street, Folsom",38.6786186,-121.1755578,restaurant,California
479,Calaveras,The Boardwalk,"9426 Greenback Lane, Orangevale",38.6778685,-121.2015325,restaurant,California
480,Calaveras,Subway,"195 Blue Ravine Road Suite 300, Folsom",38.6542695,-121.1796185,restaurant,California
481,Calaveras,Little Caesars Pizza,"605 East Bidwell Street, Folsom",38.67193,-121.1641,restaurant,California
482,Calaveras,Subway,"9500 Greenback Lane #31, Folsom",38.6775977,-121.1992551,restaurant,California
483,Calaveras,FLB Sports Bar,"511 East Bidwell Street, Folsom",38.67288919999999,-121.1653555,restaurant,California
484,Calaveras,Karen's Bakery,"705 Gold Lake Drive, Folsom",38.67725679999999,-121.1798394,restaurant,California
485,Calaveras,Pete's Restaurant & Brewhouse - Folsom,"6608 Folsom-Auburn Road, Folsom",38.6863188,-121.1793449,restaurant,California
486,Calaveras,BJ's Restaurant & Brewhouse,"2730 East Bidwell Street, Folsom",38.6562974,-121.1241343,restaurant,California
487,Calaveras,Mario's Early Toast,"25075 Blue Ravine Road, Folsom",38.689393,-121.1214861,restaurant,California
488,Calaveras,Sunny Garden Restaurant,"25085 Blue Ravine Road, Folsom",38.6897083,-121.1205,restaurant,California
489,Calaveras,Mylapore South Indian Vegetarian,"1760 Prairie City Road #100, Folsom",38.65138650000001,-121.1655129,restaurant,California
490,Calaveras,Mountain Mike's Pizza,"717 East Bidwell Street Suite 4, Folsom",38.66964309999999,-121.1602218,restaurant,California
491,Calaveras,Manderes,"1004 East Bidwell Street Ste 600, Folsom",38.6706333,-121.1550413,restaurant,California
492,Calaveras,Ruchi Indian Cuisine,"601 East Bidwell Street #3120, Folsom",38.6724813,-121.1636964,restaurant,California
493,Calaveras,Ciro's Pizza Café,"1300 East Bidwell Street #120, Folsom",38.6693077,-121.151062,restaurant,California
494,Calaveras,Coffee Republic,"6610 Folsom-Auburn Road #2, Folsom",38.6864948,-121.1792087,restaurant,California
495,Calaveras,Starbucks,"500 Natoma Station Drive, Folsom",38.655201,-121.178363,restaurant,California
496,Calaveras,Mercy Hospital of Folsom,"1650 Creekside Drive, Folsom",38.670333,-121.1458461,healthcare,California
497,Calaveras,Diagnostic Imaging: Sutter Medical Plaza (Folsom): Sutter Medical Foundation,"2575 East Bidwell Street #100, Folsom",38.6588433,-121.1300073,healthcare,California
498,Calaveras,Myrza Perez,"1561 Creekside Drive STE 130, Folsom",38.6679924,-121.1503472,healthcare,California
499,Calaveras,JB Medical Wellness Clinic,"6611 Folsom-Auburn Road # F, Folsom",38.684973,-121.1778843,healthcare,California
500,Calaveras,Sierra Hematology Oncology Medical Center,"1580 Creekside Drive #230, Folsom",38.6687617,-121.1480484,healthcare,California
501,Calaveras,DaVita Orangevale Dialysis Ctr,"9267 Greenback Lane A2, Orangevale",38.678613,-121.2088363,healthcare,California
502,Calaveras,Sutter Medical Plaza Folsom,"2575 East Bidwell Street #100, Folsom",38.6588172,-121.1301552,healthcare,California
503,Calaveras,Vibra Hospital of Sacramento,"330 Montrose Drive, Folsom",38.681136,-121.1582842,healthcare,California
504,Calaveras,"Sacramento Ear, Nose & Throat","1561 Creekside Drive Suite 180, Folsom",38.6681518,-121.150238,healthcare,California
505,Calaveras,jimcott community foundation,"1550 Iron Point Road, Folsom",38.6507671,-121.1611502,healthcare,California
506,Calaveras,Folsom Medical Plaza,"825 East Bidwell Street STE 400, Folsom",38.6704684,-121.1581976,healthcare,California
507,Calaveras,Kaiser Clinics,Folsom,38.6779017,-121.1760016,healthcare,California
508,Calaveras,"American River Urgent Care Orangevale, CA","9490 Madison Avenue #100, Orangevale",38.6772189,-121.1958766,healthcare,California
509,Calaveras,Cascade Medical Wellness & Aesthetics,"2140 East Bidwell Street, Folsom",38.6676603,-121.1443775,healthcare,California
510,Calaveras,Delivery,"1650 Creekside Drive, Folsom",38.6707244,-121.1458481,healthcare,California
511,Calaveras,Metro Infusion Center,"2360 East Bidwell Street, Folsom",38.66611609999999,-121.1400281,healthcare,California
512,Calaveras,True Health Center for Functional Medicine,"2390 East Bidwell Street STE 100, Folsom",38.6650601,-121.1383274,healthcare,California
513,Calaveras,Health Education,"2155 Iron Point Road, Folsom",38.64434809999999,-121.1353736,healthcare,California
514,Calaveras,Pediatrics,"2155 Iron Point Road, Folsom",38.64434809999999,-121.1353736,healthcare,California
515,Calaveras,Dana Fetch- Orthopedic,Folsom,38.67265869999999,-121.1390883,healthcare,California
516,Colusa,Colusa National Wildlife Refuge,"2180 State Hwy 20, Colusa, CA 95932, United States",39.1950259,-122.0561598,tourist,California
517,Colusa,Colusa Levee Scenic Park,"700 Main St, Colusa, CA 95932, United States",39.2161045,-122.010991,tourist,California
518,Colusa,Colusa-Sacramento River State Recreation Area,"50 10th St, Colusa, CA 95932, United States",39.2179335,-122.0148504,tourist,California
519,Colusa,Sacramento Valley Museum,"1491 E St, Williams, CA 95987, United States",39.1521674,-122.1603821,tourist,California
520,Colusa,Gray Lodge Wildlife Area,"3207 Rutherford Rd, Gridley, CA 95948, United States",39.3212422,-121.8164031,tourist,California
521,Colusa,NorCal Escape Co.,"3076 Colusa Hwy B, Yuba City, CA 95993, United States",39.1405284,-121.6738945,tourist,California
522,Colusa,Sacramento National Wildlife Refuge,"752 Co Rd 99W, Willows, CA 95988, United States",39.429742,-122.1916698,tourist,California
523,Colusa,Sutter National Wildlife Refuge,"4529 Schlag Rd, Yuba City, CA 95993, United States",39.074818,-121.7528914,tourist,California
524,Colusa,Happy Park,"1871 Pebble Beach Dr, Yuba City, CA 95993, United States",39.1027761,-121.6486305,tourist,California
525,Colusa,Sutter County Museum,"1333 Butte House Rd, Yuba City, CA 95993, United States",39.14638679999999,-121.6363307,tourist,California
526,Colusa,Northview Park,"180 Virginia St, Williams, CA 95987, United States",39.1591607,-122.1613692,tourist,California
527,Colusa,Castello di Amorosa,"4045 St Helena Hwy, Calistoga, CA 94515, United States",38.5585812,-122.5427528,tourist,California
528,Colusa,Capay Open Space Park,"15603 Co Rd 85, Esparto, CA 95627, United States",38.7125674,-122.0466959,tourist,California
529,Colusa,Spenceville Wildlife Area,"14936 Spenceville Rd, Penn Valley, CA 95946, United States",39.1102523,-121.2743425,tourist,California
530,Colusa,Wilbur Hot Springs,"3375 Wilbur Springs Rd, Williams, CA 95987, United States",39.0388233,-122.4208782,tourist,California
531,Colusa,Yosemite National Park,"California, United States",37.8651011,-119.5383294,tourist,California
532,Colusa,Quarry Park Adventures,"5373 Pacific St, Rocklin, CA 95677, United States",38.7883384,-121.2358305,tourist,California
533,Colusa,Coyote Pond Park.,"2543 Old Kenmare Drive, Lincoln, CA 95648, United States",38.8465745,-121.2591102,tourist,California
534,Colusa,Live Oak Recreational Park Boat Launch,"Pennington Rd, Live Oak, CA 95953, United States",39.27492489999999,-121.6312086,tourist,California
535,Colusa,Fremont Weir State Wildlife Area,"Knights Landing, CA 95645, United States",38.75246,-121.6454222,tourist,California
536,Colusa,Rocco's Bar & Grill,"546 Market St, Colusa, CA 95932, United States",39.21439110000001,-122.0088355,restaurant,California
537,Colusa,Don Habanero Méxican Restaurant,"611 Fremont St, Colusa, CA 95932, United States",39.2079183,-122.0120908,restaurant,California
538,Colusa,Market Street Grill,"415 Market St, Colusa, CA 95932, United States",39.2135303,-122.007078,restaurant,California
539,Colusa,Birrieria Michoacan,"1246 Market St, Colusa, CA 95932, United States",39.2166812,-122.0181858,restaurant,California
540,Colusa,Dragon Island,"535 Market St, Colusa, CA 95932, United States",39.2143523,-122.0086678,restaurant,California
541,Colusa,La Cabana,"1027 Bridge St, Colusa, CA 95932, United States",39.2035226,-122.0038732,restaurant,California
542,Colusa,Riverbank Pizza,"620 Fremont St, Colusa, CA 95932, United States",39.2083895,-122.0119574,restaurant,California
543,Colusa,Chef Colus,"334 Market St, Colusa, CA 95932, United States",39.2137083,-122.0060007,restaurant,California
544,Colusa,La Tiendita,"219 1st St, Colusa, CA 95932, United States",39.212365,-122.0025572,restaurant,California
545,Colusa,La Autentica de Colima,"17 Carson St, Colusa, CA 95932, United States",39.2050659,-122.0042351,restaurant,California
546,Colusa,Jeff's Freezette,"854 10th St, Colusa, CA 95932, United States",39.2096884,-122.0172032,restaurant,California
547,Colusa,Triple J Barbeque,"1045 Fremont St, Colusa, CA 95932, United States",39.2092992,-122.0179805,restaurant,California
548,Colusa,Round Table Pizza,"1031 Bridge St, Colusa, CA 95932, United States",39.2036694,-122.0040504,restaurant,California
549,Colusa,Burger King,"1011 Bridge St, Colusa, CA 95932, United States",39.2048847,-122.0037927,restaurant,California
550,Colusa,D&P Handcrafted Jalapeño Jelly,"231 5th St, Colusa, CA 95932, United States",39.21333020000001,-122.0079971,restaurant,California
551,Colusa,Valencia's Market,"950 6th St, Colusa, CA 95932, United States",39.2075593,-122.0121966,restaurant,California
552,Colusa,Round table pizza,"Colusa, CA 95932, United States",39.2143343,-122.0094175,restaurant,California
553,Colusa,Subway,"1031 Bridge St A, Colusa, CA 95932, United States",39.2036094,-122.0039749,restaurant,California
554,Colusa,Little Caesars Pizza,"655 Market St, Colusa, CA 95932, United States",39.2143174,-122.0105637,restaurant,California
555,Colusa,Carniceria Las Reinas,"751 Fremont St, Colusa, CA 95932, United States",39.2084469,-122.0142293,restaurant,California
556,Colusa,Colusa Medical Center,"199 E Webster St, Colusa, CA 95932, United States",39.2063242,,heathcare,California
557,Colusa,River health Clínic,"Colusa, CA 95932, United States",39.2085914,,heathcare,California
558,Colusa,Subway,"1031 Bridge Street A, Colusa",39.2036094,-122.0039749,gym,California
559,Colusa,Carniceria Las Reinas,"751 Fremont Street, Colusa",39.2083888,-122.0142516,gym,California
560,Colusa,Riverbank Pizza,"620 Fremont Street, Colusa",39.2083834,-122.0119597,gym,California
561,Colusa,Jeff's Freezette,"854 10th Street, Colusa",39.2096933,-122.0172261,gym,California
562,Colusa,La Cabana,"1027 Bridge Street, Colusa",39.2035226,-122.0038732,gym,California
563,Colusa,Round Table Pizza,"1031 Bridge Street, Colusa",39.2035845,-122.00404,gym,California
564,Colusa,La Tiendita,"219 1st Street, Colusa",39.2123551,-122.0025157,gym,California
565,Colusa,La Autentica de Colima,"17 Carson Street, Colusa",39.2050659,-122.0042351,gym,California
566,Colusa,Burger King,"1011 Bridge Street, Colusa",39.2048847,-122.0037927,gym,California
567,Colusa,Chef Colus,"334 Market Street, Colusa",39.2137083,-122.0060007,gym,California
568,Colusa,Market Street Grill,"415 Market Street, Colusa",39.2135303,-122.007078,gym,California
569,Colusa,D&P Handcrafted Jalapeño Jelly,"231 5th Street, Colusa",39.21333020000001,-122.0079971,gym,California
570,Colusa,Restaurant on the Range,"221 5th Street, Colusa",39.213615,-122.007921,gym,California
571,Colusa,Don Habanero Méxican Restaurant,"611 Fremont Street, Colusa",39.2079039,-122.0120183,gym,California
572,Colusa,Dragon Island,"535 Market Street, Colusa",39.21435960000001,-122.008665,gym,California
573,Colusa,Rocco's Bar & Grill,"546 Market Street, Colusa",39.21446299999999,-122.008805,gym,California
574,Colusa,Valencia's Market,"950 6th Street, Colusa",39.20747799999999,-122.012224,gym,California
575,Colusa,Round table pizza,Colusa,39.2143343,-122.0094175,gym,California
576,Colusa,De Antonio's Concessions,Colusa,39.2143343,-122.0094175,gym,California
577,Colusa,Little Caesars Pizza,"655 Market Street, Colusa",39.2143174,-122.0105637,gym,California
578,Colusa,Subway,"1031 Bridge Street A, Colusa",39.2036094,-122.0039749,restaurant,California
579,Colusa,Carniceria Las Reinas,"751 Fremont Street, Colusa",39.2083888,-122.0142516,restaurant,California
580,Colusa,Riverbank Pizza,"620 Fremont Street, Colusa",39.2083834,-122.0119597,restaurant,California
581,Colusa,Jeff's Freezette,"854 10th Street, Colusa",39.2096933,-122.0172261,restaurant,California
582,Colusa,La Cabana,"1027 Bridge Street, Colusa",39.2035226,-122.0038732,restaurant,California
583,Colusa,Round Table Pizza,"1031 Bridge Street, Colusa",39.2035845,-122.00404,restaurant,California
584,Colusa,La Tiendita,"219 1st Street, Colusa",39.2123551,-122.0025157,restaurant,California
585,Colusa,La Autentica de Colima,"17 Carson Street, Colusa",39.2050659,-122.0042351,restaurant,California
586,Colusa,Burger King,"1011 Bridge Street, Colusa",39.2048847,-122.0037927,restaurant,California
587,Colusa,Chef Colus,"334 Market Street, Colusa",39.2137083,-122.0060007,restaurant,California
588,Colusa,Market Street Grill,"415 Market Street, Colusa",39.2135303,-122.007078,restaurant,California
589,Colusa,D&P Handcrafted Jalapeño Jelly,"231 5th Street, Colusa",39.21333020000001,-122.0079971,restaurant,California
590,Colusa,Restaurant on the Range,"221 5th Street, Colusa",39.213615,-122.007921,restaurant,California
591,Colusa,Don Habanero Méxican Restaurant,"611 Fremont Street, Colusa",39.2079039,-122.0120183,restaurant,California
592,Colusa,Dragon Island,"535 Market Street, Colusa",39.21435960000001,-122.008665,restaurant,California
593,Colusa,Rocco's Bar & Grill,"546 Market Street, Colusa",39.21446299999999,-122.008805,restaurant,California
594,Colusa,Valencia's Market,"950 6th Street, Colusa",39.20747799999999,-122.012224,restaurant,California
595,Colusa,Round table pizza,Colusa,39.2143343,-122.0094175,restaurant,California
596,Colusa,De Antonio's Concessions,Colusa,39.2143343,-122.0094175,restaurant,California
597,Colusa,Little Caesars Pizza,"655 Market Street, Colusa",39.2143174,-122.0105637,restaurant,California
598,Colusa,Colusa Medical Center,"199 East Webster Street, Colusa",39.20632419999999,-122.0005702,healthcare,California
599,Colusa,Colusa Health Clinic and Internal Medicine,"151 East Webster Street, Colusa",39.207247,-122.0008477,healthcare,California
600,Colusa,River health Clínic,Colusa,39.2085914,-122.0023936,healthcare,California
601,Contra Costa,John Muir National Historic Site,"4202 Alhambra Ave, Martinez, CA 94553, United States",37.9921664,-122.1310682,tourist,California
602,Contra Costa,Greathouse Visitor Center,"Nortonville Rd, Pittsburg, CA 94565, United States",37.9549632,-121.8654732,tourist,California
603,Contra Costa,Briones Regional Park,"2537 Reliez Valley Rd, Martinez, CA 94553, United States",37.9432088,-122.1405413,tourist,California
604,Contra Costa,Rosie the Riveter National Historical Park,"1414 Harbour Way S #3000, Richmond, CA 94804, United States",37.9097083,-122.3572222,tourist,California
605,Contra Costa,Pixieland Amusement Park,"2740 E Olivera Rd, Concord, CA 94519, United States",37.9894359,-122.0219664,tourist,California
606,Contra Costa,Black Diamond Mines Regional Preserve,"5175 Somersville Rd, Antioch, CA 94509, United States",37.9564166,-121.8496605,tourist,California
607,Contra Costa,Contra Loma Regional Park,"1200 Frederickson Ln, Antioch, CA 94509, United States",37.9727433,-121.8216771,tourist,California
608,Contra Costa,Castle Rock Regional Recreation Area,"1700 Castle Rock Rd, Walnut Creek, CA 94598, United States",37.8921188,-121.9938739,tourist,California
609,Contra Costa,Old Borges Ranch,"1035 Castle Rock Rd, Walnut Creek, CA 94598, United States",37.8892125,-122.0025442,tourist,California
610,Contra Costa,Todos Santos Plaza,"2175 Willow Pass Rd, Concord, CA 94520, United States",37.977195,-122.0336677,tourist,California
611,Contra Costa,Shadelands Ranch Museum,"2660 Ygnacio Valley Rd, Walnut Creek, CA 94598, United States",37.9258457,-122.0201955,tourist,California
612,Contra Costa,Mount Diablo State Park,"Summit Rd, Walnut Creek, CA 94598, United States",37.8808335,-121.9173287,tourist,California
613,Contra Costa,Lindsay Wildlife Experience,"1931 1st Ave, Walnut Creek, CA 94597, United States",37.923525,-122.0756889,tourist,California
614,Contra Costa,Heather Farm Park,"301 N San Carlos Dr, Walnut Creek, CA 94598, United States",37.9199875,-122.0436139,tourist,California
615,Contra Costa,Tilden Regional Park,"2501 Grizzly Peak Blvd, Orinda, CA 94563, United States",37.8976908,-122.2452468,tourist,California
616,Contra Costa,Rock City Park,"S Gate Rd, Danville, CA 94506, United States",37.8484166,-121.931872,tourist,California
617,Contra Costa,Point Pinole Regional Shoreline,"5551 Giant Hwy, Richmond, CA 94806, United States",37.9987231,-122.3553838,tourist,California
618,Contra Costa,Mount Diablo Summit Museum and Trailhead,"Summit Rd, Walnut Creek, CA 94598, United States",37.8817969,-121.9142302,tourist,California
619,Contra Costa,Diablo Foothills Regional Park,"1700 Castle Rock Rd, Walnut Creek, CA 94598, United States",37.884722,-121.9956507,tourist,California
620,Contra Costa,Shell Ridge Open Space,"1035 Castle Rock Rd, Walnut Creek, CA 94598, United States",37.8985741,-122.001401,tourist,California
621,Contra Costa,The Hangout,"2217 Morello Ave, Pleasant Hill, CA 94523, United States",37.9617678,-122.0801436,restaurant,California
622,Contra Costa,Wence's Restaurant,"1922 Oak Park Blvd, Pleasant Hill, CA 94523, United States",37.93403199999999,-122.074844,restaurant,California
623,Contra Costa,Escape From Fisherman's Wharf,"1661 Contra Costa Blvd, Pleasant Hill, CA 94523, United States",37.9542549,-122.0608745,restaurant,California
624,Contra Costa,Aung MayLiKa,"1050 Contra Costa Blvd, Concord, CA 94523, United States",37.9617764,-122.0613631,restaurant,California
625,Contra Costa,Chef Choy Chinese food,"548 Contra Costa Blvd W, Pleasant Hill, CA 94523, United States",37.9791453,-122.0678633,restaurant,California
626,Contra Costa,Moa Korean BBQ Restaurant,"508 Contra Costa Blvd # Q, Pleasant Hill, CA 94523, United States",37.9812023,-122.068324,restaurant,California
627,Contra Costa,Nama k-Street Food,"2375 Contra Costa Blvd, Pleasant Hill, CA 94523, United States",37.9438368,-122.0607315,restaurant,California
628,Contra Costa,Plaza Cafe,"1912 Contra Costa Blvd, Pleasant Hill, CA 94523, United States",37.9483464,-122.0596262,restaurant,California
629,Contra Costa,El Aguila Méxican Cuisine,"1300 Contra Costa Blvd #12, Pleasant Hill, CA 94523, United States",37.9590786,-122.0606956,restaurant,California
630,Contra Costa,My Thai Cuisine,"3061, 1600 Contra Costa Blvd A, Pleasant Hill, CA 94523, United States",37.9544814,-122.0598713,restaurant,California
631,Contra Costa,Brasas Do Brasil Churrascaria,"1631 Willow Pass Rd, Concord, CA 94520, United States",37.9719471,-122.0444574,restaurant,California
632,Contra Costa,Lima,"2151 Salvio St suite i, Concord, CA 94520, United States",37.9778206,-122.0342124,restaurant,California
633,Contra Costa,In-N-Out Burger,"570 Contra Costa Blvd, Pleasant Hill, CA 94523, United States",37.976062,-122.065561,restaurant,California
634,Contra Costa,Thai Osha Restaurant,"1968 Contra Costa Blvd, Pleasant Hill, CA 94523, United States",37.9484904,-122.0581153,restaurant,California
635,Contra Costa,Magoo's Grill,"1250 Contra Costa Blvd # 203, Pleasant Hill, CA 94523, United States",37.9592385,-122.0609281,restaurant,California
636,Contra Costa,Crescent Bistro,"45 Crescent Dr Suite #11C, Pleasant Hill, CA 94523, United States",37.9464804,-122.0620493,restaurant,California
637,Contra Costa,China Chef restaurant,"1200 Contra Costa Blvd # K, Pleasant Hill, CA 94523, United States",37.9599492,-122.0611056,restaurant,California
638,Contra Costa,Attraversiamo,"2485 Sand Creek Rd #140, Brentwood, CA 94513, United States",37.945314,-121.7379592,restaurant,California
639,Contra Costa,La Fontaine Walnut Creek,"1375 N Broadway, Walnut Creek, CA 94596, United States",37.8990395,-122.0599076,restaurant,California
640,Contra Costa,Longport Fish Company,"2015 Diamond Blvd Suite 100, Concord, CA 94520, United States",37.9713588,-122.0564448,restaurant,California
641,Contra Costa,Contra Costa Regional Medical Center,"2500 Alhambra Ave, Martinez, CA 94553, United States",38.0066858,,heathcare,California
642,Contra Costa,"John Muir Health, Concord Medical Center","2540 East St, Concord, CA 94520, United States",37.9836985,,heathcare,California
643,Contra Costa,BASS Medical Group,"2222 East St #300, Concord, CA 94520, United States",37.9813955,,heathcare,California
644,Contra Costa,San Ramon Regional Medical Center,"6001 Norris Canyon Rd, San Ramon, CA 94583, United States",37.7759432,,heathcare,California
645,Contra Costa,La Clínica,"2100 Monument Blvd #8, Pleasant Hill, CA 94523, United States",37.9453906,,heathcare,California
646,Contra Costa,Contra Costa Health Services,"2500 Alhambra Ave, Martinez, CA 94553, United States",38.006764,,heathcare,California
647,Contra Costa,SHC,"5022-5040 Commercial Cir, Concord, CA 94520, United States",38.0163108,,heathcare,California
648,Contra Costa,John Muir Health,"401 Gregory Ln Suite 104, Pleasant Hill, CA 94523, United States",37.9488807,,heathcare,California
649,Contra Costa,John Muir Health Walnut Creek Medical Center,"1601 Ygnacio Valley Rd, Walnut Creek, CA 94598, United States",37.9132083,,heathcare,California
650,Contra Costa,Kaiser Hospital,"4501 Sand Creek Rd, Antioch, CA 94531, United States",37.9509212,,heathcare,California
651,Contra Costa,Sutter Delta Medical Center,"3901 Lone Tree Wy, Antioch, CA 94509, United States",37.9826963,,heathcare,California
652,Contra Costa,Highland Hospital,"1411 E 31st St, Oakland, CA 94602, United States",37.7984062,,heathcare,California
653,Contra Costa,Alta Bates Summit Medical Center | Summit Campus,"350 Hawthorne Ave, Oakland, CA 94609, United States",37.8211583,,heathcare,California
654,Contra Costa,Kaiser,"3400 Delta Fair Blvd, Antioch, CA 94509, United States",38.0044231,,heathcare,California
655,Contra Costa,Packard Children's Health,"106 La Casa Via # 240, Walnut Creek, CA 94598, United States",37.9122641,,heathcare,California
656,Contra Costa,Alameda Hospital,"2070 Clinton Ave, Alameda, CA 94501, United States",37.762677,,heathcare,California
657,Contra Costa,Providence Hospital,"3100 Summit St, Oakland, CA 94609, United States",37.8199797,,heathcare,California
658,Contra Costa,Healthcare Reimbursement Services,"2700 Ygnacio Valley Rd #135, Walnut Creek, CA 94598, United States",37.9263153,,heathcare,California
659,Contra Costa,Eden Medical Center,"20103 Lake Chabot Rd, Castro Valley, CA 94546, United States",37.6981504,,heathcare,California
660,Contra Costa,Stanford Health Care - Tri-Valley,"5555 W Las Positas Blvd, Pleasanton, CA 94588, United States",37.6933946,,heathcare,California
661,Contra Costa,Chicken Now,"3426 Livermore Outlets Drive, Livermore",37.6988126,-121.8450115,gym,California
662,Contra Costa,BJ's Restaurant & Brewhouse,"3620 Fallon Road, Dublin",37.7027216,-121.8515465,gym,California
663,Contra Costa,Villa Italian Kitchen,"3410 Livermore Outlets Drive Ste FC2, Livermore",37.7006429,-121.8423178,gym,California
664,Contra Costa,Tommy T's Comedy Club,"5104 Hopyard Road, Pleasanton",37.6980549,-121.9054471,gym,California
665,Contra Costa,Five Guys,"4930 Dublin Boulevard Unit 680, Dublin",37.70419179999999,-121.8851426,gym,California
666,Contra Costa,Subway,"4555 Hopyard Road C-23, Pleasanton",37.6887815,-121.9024241,gym,California
667,Contra Costa,Oasis Restaurant & Wine Lounge,"780 Main Street, Pleasanton",37.6637824,-121.8742229,gym,California
668,Contra Costa,The Cheesecake Factory,"1350 Stoneridge Mall Road, Pleasanton",37.69408889999999,-121.9290448,gym,California
669,Contra Costa,Japan Cafe,"3402 Paragon, Livermore Outlets Drive, Livermore",37.6986287,-121.845255,gym,California
670,Contra Costa,China Max,"3434 Livermore Outlets Drive, Livermore",37.6987191,-121.8450145,gym,California
671,Contra Costa,Denica's Real Food Kitchen,"6058 Dougherty Road, Dublin",37.7076375,-121.9106422,gym,California
672,Contra Costa,Subway,"6000 Dougherty Road, Dublin",37.7067761,-121.9110141,gym,California
673,Contra Costa,Eddie Papa's American Hangout,"4889 Hopyard Road, Pleasanton",37.69343250000001,-121.9029174,gym,California
674,Contra Costa,Buffalo Wild Wings,"3712 Dublin Boulevard, Dublin",37.7050412,-121.8661186,gym,California
675,Contra Costa,The Hop Yard Alehouse & Grill,"3015 Hopyard Road, Pleasanton",37.67699169999999,-121.8974611,gym,California
676,Contra Costa,Dublin Ranch Golf Course,"5900 Signal Hill Drive, Dublin",37.7251481,-121.8573991,gym,California
677,Contra Costa,Starbucks,"4555 Hopyard Road Suite C-15, Pleasanton",37.68907100000001,-121.902522,gym,California
678,Contra Costa,Pizza Bello,"3037 Hopyard Road STE C, Pleasanton",37.6768653,-121.8969017,gym,California
679,Contra Costa,Blue Agave Club,"625 Main Street, Pleasanton",37.6619994,-121.8756066,gym,California
680,Contra Costa,Coco Cabana,"4500 Tassajara Road C, Dublin",37.7072736,-121.8724825,gym,California
681,Contra Costa,Chicken Now,"3426 Livermore Outlets Drive, Livermore",37.6988126,-121.8450115,restaurant,California
682,Contra Costa,BJ's Restaurant & Brewhouse,"3620 Fallon Road, Dublin",37.7027216,-121.8515465,restaurant,California
683,Contra Costa,Villa Italian Kitchen,"3410 Livermore Outlets Drive Ste FC2, Livermore",37.7006429,-121.8423178,restaurant,California
684,Contra Costa,Tommy T's Comedy Club,"5104 Hopyard Road, Pleasanton",37.6980549,-121.9054471,restaurant,California
685,Contra Costa,Five Guys,"4930 Dublin Boulevard Unit 680, Dublin",37.70419179999999,-121.8851426,restaurant,California
686,Contra Costa,Subway,"4555 Hopyard Road C-23, Pleasanton",37.6887815,-121.9024241,restaurant,California
687,Contra Costa,Oasis Restaurant & Wine Lounge,"780 Main Street, Pleasanton",37.6637824,-121.8742229,restaurant,California
688,Contra Costa,The Cheesecake Factory,"1350 Stoneridge Mall Road, Pleasanton",37.69408889999999,-121.9290448,restaurant,California
689,Contra Costa,Japan Cafe,"3402 Paragon, Livermore Outlets Drive, Livermore",37.6986287,-121.845255,restaurant,California
690,Contra Costa,China Max,"3434 Livermore Outlets Drive, Livermore",37.6987191,-121.8450145,restaurant,California
691,Contra Costa,Denica's Real Food Kitchen,"6058 Dougherty Road, Dublin",37.7076375,-121.9106422,restaurant,California
692,Contra Costa,Subway,"6000 Dougherty Road, Dublin",37.7067761,-121.9110141,restaurant,California
693,Contra Costa,Eddie Papa's American Hangout,"4889 Hopyard Road, Pleasanton",37.69343250000001,-121.9029174,restaurant,California
694,Contra Costa,Buffalo Wild Wings,"3712 Dublin Boulevard, Dublin",37.7050412,-121.8661186,restaurant,California
695,Contra Costa,The Hop Yard Alehouse & Grill,"3015 Hopyard Road, Pleasanton",37.67699169999999,-121.8974611,restaurant,California
696,Contra Costa,Dublin Ranch Golf Course,"5900 Signal Hill Drive, Dublin",37.7251481,-121.8573991,restaurant,California
697,Contra Costa,Starbucks,"4555 Hopyard Road Suite C-15, Pleasanton",37.68907100000001,-121.902522,restaurant,California
698,Contra Costa,Pizza Bello,"3037 Hopyard Road STE C, Pleasanton",37.6768653,-121.8969017,restaurant,California
699,Contra Costa,Blue Agave Club,"625 Main Street, Pleasanton",37.6619994,-121.8756066,restaurant,California
700,Contra Costa,Coco Cabana,"4500 Tassajara Road C, Dublin",37.7072736,-121.8724825,restaurant,California
701,Contra Costa,Stanford Health Care - ValleyCare Medical Center Laboratory,"5555 West Las Positas Boulevard, Pleasanton",37.6931353,-121.8802117,healthcare,California
702,Contra Costa,Heart of the Valley Pediatric Cardiology,"5933 Coronado Lane STE 104, Pleasanton",37.68406719999999,-121.9007407,healthcare,California
703,Contra Costa,Adler Lauren R,"5555 West Las Positas Boulevard, Pleasanton",37.6933594,-121.8801867,healthcare,California
704,Contra Costa,Neurology: Dublin Center: Palo Alto Medical Foundation,"4050 Dublin Boulevard, Dublin",37.7052161,-121.8729756,healthcare,California
705,Contra Costa,Nutrition Services: Dublin Center: Palo Alto Medical Foundation,"4050 Dublin Boulevard, Dublin",37.7051737,-121.8730981,healthcare,California
706,Contra Costa,Podiatry: Dublin Center: Palo Alto Medical Foundation,"4050 Dublin Boulevard, Dublin",37.7051737,-121.8730981,healthcare,California
707,Contra Costa,Sutter Health,"4000 Tassajara Road, Pleasanton",37.7049407,-121.8728713,healthcare,California
708,Contra Costa,PAMF,"4000 Dublin Boulevard, Dublin",37.7048609,-121.8726166,healthcare,California
709,Contra Costa,Stanford Health Care - Tri-Valley,"5555 West Las Positas Boulevard, Pleasanton",37.6933946,-121.8803417,healthcare,California
710,Contra Costa,Pain Medicine Consultants,"2324 Santa Rita Road #6, Pleasanton",37.6822374,-121.8752061,healthcare,California
711,Contra Costa,Team Health West,"5000 Hopyard Road, Pleasanton",37.6949903,-121.9047415,healthcare,California
712,Contra Costa,Hacienda Medical Center,"5924 Stoneridge Drive, Pleasanton",37.690895,-121.8989639,healthcare,California
713,Contra Costa,Town & Country Vet Hospital and Pleasanton Pet Hotel Coleen Dossey DVM,"923 Main Street, Pleasanton",37.66598,-121.874618,healthcare,California
714,Contra Costa,Stanford Health Care - Valleycare Medical Foundation,"5575 West Las Positas Boulevard, Pleasanton",37.693424,-121.880486,healthcare,California
715,Contra Costa,"Valleycare Gastroenterology Medical Group, Inc.","5575 West Las Positas Boulevard suite 320, Pleasanton",37.6936564,-121.8802812,healthcare,California
716,Contra Costa,LMG HealthCare,"1061 Serpentine Lane, Pleasanton",37.6690658,-121.8679132,healthcare,California
717,Contra Costa,DaVita Livermore Dialysis,"3201 Doolan Road #175, Livermore",37.70434119999999,-121.8221277,healthcare,California
718,Contra Costa,Nephrology: Dublin Center Palo Alto Medical Foundation,"4050 Dublin Boulevard, Dublin",37.7052013,-121.8730273,healthcare,California
719,Contra Costa,East Bay Animal Shelter,"4595 Gleason Drive, Dublin",37.7134284,-121.8791195,healthcare,California
720,Contra Costa,Dublin医院,"3100 Dublin Boulevard, Dublin",37.7033897,-121.8585091,healthcare,California
721,Del Norte,Battery Point Lighthouse and Museum/Crescent City Lighthouse,"235 Lighthouse Way, Crescent City, CA 95531, United States",41.744118,-124.2030966,tourist,California
722,Del Norte,Ocean World,"304 US-101 South, Crescent City, CA 95531, United States",41.7519847,-124.188407,tourist,California
723,Del Norte,Tolowa Dunes State Park,"Kellogg Rd, Crescent City, CA 95531, United States",41.870055,-124.2036245,tourist,California
724,Del Norte,Del Norte Coast Redwoods State Park,"Crescent City, CA 95531, United States",41.6680924,-124.1139454,tourist,California
725,Del Norte,Del Norte County Historical Society,"577 H St, Crescent City, CA 95531, United States",41.7542306,-124.1992139,tourist,California
726,Del Norte,Crescent Beach Overlook,"Crescent City, CA 95531, United States",41.7071579,-124.1438099,tourist,California
727,Del Norte,Jedediah Smith Redwoods State Park,"Crescent City, CA 95531, United States",41.7955087,-124.1046827,tourist,California
728,Del Norte,B Street Pier,"12411 Anna Rd, Crescent City, CA 95531, United States",41.7439184,-124.197658,tourist,California
729,Del Norte,Battery Point Beach,"Battery Point Vista Area, 235 Lighthouse Way, Crescent City, CA 95531, United States",41.7453485,-124.2015884,tourist,California
730,Del Norte,Beachfront Park,"Crescent City, CA 95531, United States",41.7503712,-124.1952786,tourist,California
731,Del Norte,Redwood National and State Parks,"California, United States",41.2131788,-124.0046275,tourist,California
732,Del Norte,Trees of Mystery,"15500 US-101, Klamath, CA 95548, United States",41.584849,-124.086106,tourist,California
733,Del Norte,Prairie Creek Visitor Center,"Newton B. Drury Scenic Pkwy, Orick, CA 95555, United States",41.3639849,-124.0231203,tourist,California
734,Del Norte,Prairie Creek Redwoods State Park,"127011 Newton B. Drury Scenic Pkwy, Orick, CA 95555, United States",41.4016041,-124.0416172,tourist,California
735,Del Norte,Sue-Meg State Park,"4150 Patricks Point Dr, Trinidad, CA 95570, United States",41.1364671,-124.1552219,tourist,California
736,Del Norte,Klamath Tour Thru Tree,"430 CA-169, Klamath, CA 95548, United States",41.52153630000001,-124.0317377,tourist,California
737,Del Norte,Stout Grove Trailhead,"17 West 4th Avenue, Crescent City, CA 95531, United States",41.7896872,-124.084822,tourist,California
738,Del Norte,Simpson-Reed Trail,"Crescent City, CA 95531, United States",41.8125622,-124.1088977,tourist,California
739,Del Norte,Humboldt Lagoons State Park,"15336 US-101, Trinidad, CA 95570, United States",41.2250536,-124.0981292,tourist,California
740,Del Norte,Castle Rock National Wildlife Refuge,"Crescent City, CA 95531, United States",41.7615418,-124.2494124,tourist,California
741,Del Norte,Marlo's Restaurant,"383 M St, Crescent City, CA 95531, United States",41.7556735,-124.192675,restaurant,California
742,Del Norte,Cazadores,"1461 Northcrest Dr, Crescent City, CA 95531, United States",41.771898,-124.1996664,restaurant,California
743,Del Norte,Enoteca,"960 3rd St, Crescent City, CA 95531, United States",41.75310510000001,-124.1966171,restaurant,California
744,Del Norte,C C Diner & Ice Cream,"1319 Northcrest Dr, Crescent City, CA 95531, United States",41.770168,-124.199088,restaurant,California
745,Del Norte,Chart Room Restaurant,"130 Anchor Way, Crescent City, CA 95531, United States",41.7437111,-124.1810415,restaurant,California
746,Del Norte,Schmidt's House of Jambalaya,"110 Anchor Way, Crescent City, CA 95531, United States",41.744954,-124.1798888,restaurant,California
747,Del Norte,Perlita's Authentic Mexican,"297 US-101, Crescent City, CA 95531, United States",41.7532586,-124.1889837,restaurant,California
748,Del Norte,Los Compadres Mexican Restaurant,"457 US-101, Crescent City, CA 95531, United States",41.7516592,-124.183589,restaurant,California
749,Del Norte,Cristina's,"237 Price Mall, Crescent City, CA 95531, United States",41.7528127,-124.1956562,restaurant,California
750,Del Norte,Far East,"1483 Northcrest Dr, Crescent City, CA 95531, United States",41.772351,-124.1997487,restaurant,California
751,Del Norte,Fisherman's Restaurant,"700 US-101, Crescent City, CA 95531, United States",41.7486324,-124.1805161,restaurant,California
752,Del Norte,Sea West,"6655 Lake Earl Dr, Crescent City, CA 95531, United States",41.8647059,-124.1507795,restaurant,California
753,Del Norte,Art's BBQ,"132 E Washington Blvd, Crescent City, CA 95531, United States",41.7730519,-124.2030772,restaurant,California
754,Del Norte,Kin Khao Thai Eatery,"1270 Front St ste c, Crescent City, CA 95531, United States",41.75351,-124.1927006,restaurant,California
755,Del Norte,Seaside Restaurant & Bar,"100 A St, Crescent City, CA 95531, United States",41.7477184,-124.2033376,restaurant,California
756,Del Norte,Historic Hiouchi Cafe,"2095 US-199, Crescent City, CA 95531, United States",41.7927093,-124.072204,restaurant,California
757,Del Norte,Good Harvest Cafe,"575 US-101, Crescent City, CA 95531, United States",41.7510812,-124.1827317,restaurant,California
758,Del Norte,Side Street Kitchen,"60 4th St, Point Reyes Station, CA 94956, United States",38.06854879999999,-122.8074627,restaurant,California
759,Del Norte,Harbor House Inn,"5600 CA-1, Elk, CA 95432, United States",39.1356363,-123.7195284,restaurant,California
760,Del Norte,SeaQuake Brewing,"400 Front St, Crescent City, CA 95531, United States",41.7496327,-124.1997994,restaurant,California
761,Del Norte,Sutter Coast Hospital |Sutter Coast Hospital Birth Center,"800 E Washington Blvd, Crescent City, CA 95531, United States",41.7736023,,heathcare,California
762,Del Norte,Sanderling Dialysis Center,"1205 Douglas St, Crescent City, CA 95531, United States",41.7674999,,heathcare,California
763,Del Norte,Sutter Coast Walk-In Clinic,"780 E Washington Blvd, Crescent City, CA 95531, United States",41.7724189,,heathcare,California
764,Del Norte,Subway,"309 U.S. 101, Crescent City",41.7527753,-124.1871301,gym,California
765,Del Norte,Subway,"850 U.S. 101, Crescent City",41.76432519999999,-124.1969346,gym,California
766,Del Norte,Oceanfront Lodge,"100 A Street, Crescent City",41.7475187,-124.203233,gym,California
767,Del Norte,Papa Murphy's | Take 'N' Bake Pizza,"387 M Street A4 & A5, Crescent City",41.7557447,-124.192873,gym,California
768,Del Norte,Subway,"900 East Washington Boulevard, Crescent City",41.7749341,-124.189959,gym,California
769,Del Norte,Toyama Sushi,"389 M Street #4118, Crescent City",41.7558312,-124.1928133,gym,California
770,Del Norte,Marlo's Restaurant,"383 M Street, Crescent City",41.7556735,-124.192675,gym,California
771,Del Norte,Denny's,"1225 5th Street, Crescent City",41.7554077,-124.1952076,gym,California
772,Del Norte,Little Caesars Pizza,"270 M Street, Crescent City",41.75426100000001,-124.1933794,gym,California
773,Del Norte,SeaQuake Brewing,"400 Front Street, Crescent City",41.7496327,-124.1997994,gym,California
774,Del Norte,Seaside Restaurant & Bar,"100 A Street, Crescent City",41.7477377,-124.2034056,gym,California
775,Del Norte,Crescent Seafood,"170 Marine Way, Crescent City",41.7465841,-124.1820941,gym,California
776,Del Norte,Chart Room Restaurant,"130 Anchor Way, Crescent City",41.743717,-124.181052,gym,California
777,Del Norte,Perlita's Authentic Mexican,"297 U.S. 101, Crescent City",41.7532593,-124.1889835,gym,California
778,Del Norte,C C Diner & Ice Cream,"1319 Northcrest Drive, Crescent City",41.770168,-124.199088,gym,California
779,Del Norte,Cazadores,"1461 Northcrest Drive, Crescent City",41.7718669,-124.1996559,gym,California
780,Del Norte,Good Harvest Cafe,"575 U.S. 101, Crescent City",41.751073,-124.182741,gym,California
781,Del Norte,Fisherman's Restaurant,"700 U.S. 101, Crescent City",41.748589,-124.180454,gym,California
782,Del Norte,McDonald's,"380 M Street, Crescent City",41.7553406,-124.1935026,gym,California
783,Del Norte,The Apple Peddler Restaurant,"308 U.S. 101, Crescent City",41.75220729999999,-124.1877012,gym,California
784,Del Norte,Subway,"309 U.S. 101, Crescent City",41.7527753,-124.1871301,restaurant,California
785,Del Norte,Subway,"850 U.S. 101, Crescent City",41.76432519999999,-124.1969346,restaurant,California
786,Del Norte,Oceanfront Lodge,"100 A Street, Crescent City",41.7475187,-124.203233,restaurant,California
787,Del Norte,Papa Murphy's | Take 'N' Bake Pizza,"387 M Street A4 & A5, Crescent City",41.7557447,-124.192873,restaurant,California
788,Del Norte,Subway,"900 East Washington Boulevard, Crescent City",41.7749341,-124.189959,restaurant,California
789,Del Norte,Toyama Sushi,"389 M Street #4118, Crescent City",41.7558312,-124.1928133,restaurant,California
790,Del Norte,Marlo's Restaurant,"383 M Street, Crescent City",41.7556735,-124.192675,restaurant,California
791,Del Norte,Denny's,"1225 5th Street, Crescent City",41.7554077,-124.1952076,restaurant,California
792,Del Norte,Little Caesars Pizza,"270 M Street, Crescent City",41.75426100000001,-124.1933794,restaurant,California
793,Del Norte,SeaQuake Brewing,"400 Front Street, Crescent City",41.7496327,-124.1997994,restaurant,California
794,Del Norte,Seaside Restaurant & Bar,"100 A Street, Crescent City",41.7477377,-124.2034056,restaurant,California
795,Del Norte,Crescent Seafood,"170 Marine Way, Crescent City",41.7465841,-124.1820941,restaurant,California
796,Del Norte,Chart Room Restaurant,"130 Anchor Way, Crescent City",41.743717,-124.181052,restaurant,California
797,Del Norte,Perlita's Authentic Mexican,"297 U.S. 101, Crescent City",41.7532593,-124.1889835,restaurant,California
798,Del Norte,C C Diner & Ice Cream,"1319 Northcrest Drive, Crescent City",41.770168,-124.199088,restaurant,California
799,Del Norte,Cazadores,"1461 Northcrest Drive, Crescent City",41.7718669,-124.1996559,restaurant,California
800,Del Norte,Good Harvest Cafe,"575 U.S. 101, Crescent City",41.751073,-124.182741,restaurant,California
801,Del Norte,Fisherman's Restaurant,"700 U.S. 101, Crescent City",41.748589,-124.180454,restaurant,California
802,Del Norte,McDonald's,"380 M Street, Crescent City",41.7553406,-124.1935026,restaurant,California
803,Del Norte,The Apple Peddler Restaurant,"308 U.S. 101, Crescent City",41.75220729999999,-124.1877012,restaurant,California
804,Del Norte,Sutter Coast Hospital |Sutter Coast Hospital Birth Center,"800 East Washington Boulevard, Crescent City",41.7736023,-124.1942263,healthcare,California
805,Del Norte,Sutter Coast Community Clinic,"780 East Washington Boulevard, Crescent City",41.77382449999999,-124.1942061,healthcare,California
806,Del Norte,Sanderling Dialysis Center,"1205 Douglas Street, Crescent City",41.7674999,-124.1959271,healthcare,California
807,Del Norte,Sutter Coast Walk-In Clinic,"780 East Washington Boulevard, Crescent City",41.7724189,-124.1930326,healthcare,California
808,Del Norte,Sutter Coast Home Care,"785 West Washington Boulevard, Crescent City",41.7731211,-124.1940533,healthcare,California
809,Del Norte,OpenDoor Health Center,"550 East Washington Boulevard, Crescent City",41.7732886,-124.1988985,healthcare,California
810,Del Norte,Sutter Coast Infusion Center,"780 East Washington Boulevard Building C, Crescent City",41.7754661,-124.194247,healthcare,California
811,El Dorado,Bridal Veil Falls,"Pollock Pines, CA 95726, United States",38.7658449,-120.4903999,tourist,California
812,El Dorado,Marshall Gold Discovery State Historic Park,"310 Back St, Coloma, CA 95613, United States",38.8000647,-120.8923429,tourist,California
813,El Dorado,Kalithea Park,"4980 Gillette Dr, El Dorado Hills, CA 95762, United States",38.6785933,-121.0873376,tourist,California
814,El Dorado,El Dorado Orchards,"2881 N Canyon Rd, Camino, CA 95709, United States",38.7465817,-120.7250901,tourist,California
815,El Dorado,Folsom Powerhouse State Historic Park,"9980 Greenback Ln, Folsom, CA 95630, United States",38.6805029,-121.1758423,tourist,California
816,El Dorado,Gold Discovery Museum,"310 Back St, Coloma, CA 95613, United States",38.8002886,-120.8922428,tourist,California
817,El Dorado,SeaQuest Folsom,"430 Palladio Pkwy #1801, Folsom, CA 95630, United States",38.6507933,-121.1214084,tourist,California
818,El Dorado,Folsom City Zoo Sanctuary,"403 Stafford St, Folsom, CA 95630, United States",38.6827047,-121.1661338,tourist,California
819,El Dorado,El Dorado County Historical Museum,"104 Placerville Dr, Placerville, CA 95667, United States",38.7245635,-120.8344212,tourist,California
820,El Dorado,Black Chasm Cavern National Natural Landmark,"15701 Pioneer Volcano Rd, Volcano, CA 95689, United States",38.434278,-120.626471,tourist,California
