,County,Name,Address,Lat,Lng,Type,City
0,Adams,Historical Society of Quincy & Adams County,"332 Maine St, Quincy, IL 62301, United States",39.9318094,-91.41025379999999,tourist,Illinois
1,Adams,Clat Adams Bicentennial Park,"501 All American Park, Quincy, IL 62301, United States",39.9339334,-91.4159124,tourist,Illinois
2,Adams,All Wars Museum,"1707 N 12th St, Quincy, IL 62301, United States",39.9531144,-91.3987822,tourist,Illinois
3,Adams,Scotties Fun Spot,"8000 Broadway St, Quincy, IL 62305, United States",39.92973920000001,-91.2869209,tourist,Illinois
4,Adams,John Wood Mansion,"425 S 12th St, Quincy, IL 62301, United States",39.9269185,-91.395987,tourist,Illinois
5,Adams,Villa Kathrine,"532 Gardner Expy, Quincy, IL 62301, United States",39.9257533,-91.4131689,tourist,Illinois
6,Adams,Indian Mounds Park,"RJ Peters Dr and, S 8th St, Quincy, IL 62301, United States",39.9118644,-91.4077643,tourist,Illinois
7,Adams,Moorman Park,"Quincy, IL 62305, United States",39.9490109,-91.3505411,tourist,Illinois
8,Adams,Washington Park,"N 5th St, Quincy, IL 62301, United States",39.932637,-91.40924700000001,tourist,Illinois
9,Adams,Starved Rock State Park,"2678 E 875th Rd, Oglesby, IL 61348, United States",41.3192311,-89.00598190000001,tourist,Illinois
10,Adams,Downtown Quincy Historic District,"Quincy, IL 62301, United States",39.9323181,-91.40702519999999,tourist,Illinois
11,Adams,Bill Klingner Trail,"2533 N 18th St, Quincy, IL 62305, United States",39.9581041,-91.387579,tourist,Illinois
12,Adams,Siloam Springs State Park,"938 County Rd 3003 E, Clayton, IL 62324, United States",39.88932519999999,-90.9223652,tourist,Illinois
13,Adams,Old State Capitol,"526 E Adams St, Springfield, IL 62701, United States",39.8011444,-89.6485573,tourist,Illinois
14,Adams,Weinberg-King State Park,"IL-101, Augusta, IL 62311, United States",40.2308728,-90.8979177,tourist,Illinois
15,Adams,Indian Mounds,"1500 S 5th St, Quincy, IL 62301, United States",39.9136927,-91.4095281,tourist,Illinois
16,Adams,Historic Route 66 Begin Sign,"78-98 E Adams St, Chicago, IL 60603, United States",41.8796182,-87.62460949999999,tourist,Illinois
17,Adams,Madison Park,"24th Maine, Quincy, IL 62301, United States",39.9310565,-91.3761665,tourist,Illinois
18,Adams,Silver Springs State Fish and Wildlife Area,"13608 Fox Rd, Yorkville, IL 60560, United States",41.6275567,-88.51855239999999,tourist,Illinois
19,Adams,Riverview Park,"Chestnut St & N 2nd St, Quincy, IL 62301, United States",39.9437653,-91.413879,tourist,Illinois
20,Adams,Bluehaven Cafe,"1645 IL-104, Quincy, IL 62305, United States",39.9368924,-91.1940224,restaurant,Illinois
21,Adams,The Abbey,"1736 Spring St, Quincy, IL 62301, United States",39.936428,-91.38731399999999,restaurant,Illinois
22,Adams,Silver Dollar- GRM,"7403 Broadway St, Quincy, IL 62305, United States",39.9347524,-91.2981801,restaurant,Illinois
23,Adams,Greek To Me,"1227 N 24th St, Quincy, IL 62301, United States",39.9464167,-91.3778577,restaurant,Illinois
24,Adams,Chick's On The River,"236 N Front St, Quincy, IL 62301, United States",39.9343738,-91.4147593,restaurant,Illinois
25,Adams,Gem City Pizzeria & Mexican,"1801 State St, Quincy, IL 62301, United States",39.9264762,-91.38676029999999,restaurant,Illinois
26,Adams,Maya Authentic Mexican Restaurant,"4420 Broadway St, Quincy, IL 62305, United States",39.9346166,-91.3450646,restaurant,Illinois
27,Adams,Dunnbelly,"4403 Broadway St, Quincy, IL 62305, United States",39.935365,-91.34552839999999,restaurant,Illinois
28,Adams,Coach House Restaurant,"2401 Broadway St, Quincy, IL 62301, United States",39.9356664,-91.3770354,restaurant,Illinois
29,Adams,Little Greek Fresh Grill,"3726 Broadway St, Quincy, IL 62305, United States",39.9337462,-91.3555519,restaurant,Illinois
30,Adams,The Scoreboard,"234 S 8th St, Quincy, IL 62301, United States",39.9294565,-91.40350579999999,restaurant,Illinois
31,Adams,The Patio Restaurant & Lounge,"401 Jersey St, Quincy, IL 62301, United States",39.9308454,-91.4097936,restaurant,Illinois
32,Adams,Kelly's,"2902 Broadway St, Quincy, IL 62301, United States",39.9348392,-91.3692239,restaurant,Illinois
33,Adams,El Patron,"340 S 36th St, Quincy, IL 62301, United States",39.9273362,-91.3588084,restaurant,Illinois
34,Adams,El Rancherito Mexican Restaurant,"307 N 36th St #213, Quincy, IL 62301, United States",39.9343084,-91.3595158,restaurant,Illinois
35,Adams,Grove Inn Bar & Grill,"6510 Broadway St #9786, Quincy, IL 62305, United States",39.9345861,-91.3122001,restaurant,Illinois
36,Adams,O'Shea's,"339 Cedar St, Quincy, IL 62301, United States",39.9459189,-91.410229,restaurant,Illinois
37,Adams,BoodaLu Steakhouse,"117 Hampshire St, Quincy, IL 62301, United States",39.93348,-91.41433699999999,restaurant,Illinois
38,Adams,Down Home Pub and Eatery,"509 S 9th St, Quincy, IL 62301, United States",39.92622069999999,-91.40139239999999,restaurant,Illinois
39,Adams,Best Buffet,"5325 Oak St, Quincy, IL 62305, United States",39.9375998,-91.330216,restaurant,Illinois
40,Adams,Blessing Hospital North Entrance,"1107 N 11th St, Quincy, IL 62301, United States",39.9382017,,heathcare,Illinois
41,Adams,Elmore Infirmary,"1707 N 12th St, Quincy, IL 62301, United States",39.9548768,,heathcare,Illinois
42,Adams,Fletcher Infirmary,"1707 N. 12th-Veterans Home, Quincy, IL 62301, United States",39.9553825,,heathcare,Illinois
43,Adams,Anderson Barracks,"1707 N 12th St, Quincy, IL 62301, United States",39.954057,,heathcare,Illinois
44,Adams,Culbertson Memorial Hospital,"238 S Congress St, Rushville, IL 62681, United States",40.1181647,,heathcare,Illinois
45,Adams,McDonough District Hospital,"525 E Grant St, Macomb, IL 61455, United States",40.44692149999999,,heathcare,Illinois
46,Adams,Stone Building,"1707 N. 12th-Veterans Home, Quincy, IL 62301, United States",39.9544209,,heathcare,Illinois
47,Adams,Illini Community Hospital,"640 W Washington St, Pittsfield, IL 62363, United States",39.6074013,,heathcare,Illinois
48,Adams,Thomas H Boyd Memorial Hospital Laboratory,"800 School St, Carrollton, IL 62016, United States",39.29681009999999,,heathcare,Illinois
49,Adams,Pike County Memorial Hospital,"2305 Georgia St, Louisiana, MO 63353, United States",39.4405717,,heathcare,Illinois
50,Adams,"Cayle, IL","2445-2459 Seminary St, Alton, IL 62002, United States",38.9136403,,heathcare,Illinois
51,Adams,Memorial Hospital,"1454 N Co Rd 2050, Carthage, IL 62321, United States",40.4080736,,heathcare,Illinois
52,Adams,VA outpatient clinic,"6020 Broadway St, Quincy, IL 62305, United States",39.9341894,,heathcare,Illinois
53,Adams,Carlinville Area Hospital,"20733 N Broad St, Carlinville, IL 62626, United States",39.29891910000001,,heathcare,Illinois
54,Adams,Adams Memorial Hospital,"1100 Mercer Ave, Decatur, IN 46733, United States",40.8163638,,heathcare,Illinois
55,Adams,Gateway Regional Medical Center,"2100 Madison Ave, Granite City, IL 62040, United States",38.7011441,,heathcare,Illinois
56,Adams,Quincy VA Clinic,"6020 Broadway St, Quincy, IL 62305, United States",39.9341756,,heathcare,Illinois
57,Adams,Hannibal Regional Hospital,"6000 Hospital Dr, Hannibal, MO 63401, United States",39.710562,,heathcare,Illinois
58,Adams,Subway,"3527 Stardust Drive, Hannibal",39.7218502,-91.3965099,restaurant,Illinois
59,Adams,Subway,"100 Shinn Lane, Hannibal",39.7113193,-91.44305539999999,restaurant,Illinois
60,Adams,Fiddlestiks Food & Spirits Company,"8945 U.S. 36, Hannibal",39.7128812,-91.4328091,restaurant,Illinois
61,Adams,The Brick Oven,"207 Center Street, Hannibal",39.7102547,-91.356636,restaurant,Illinois
62,Adams,Drakes Steak & Ale,"421 Clinic Road, Hannibal",39.7005198,-91.3897789,restaurant,Illinois
63,Adams,Shell,"100 Shinn Lane, Hannibal",39.711172,-91.4434323,restaurant,Illinois
64,Adams,MiMi's Coffee House & Ice Cream,"106 Lakeside Drive, Hannibal",39.71285249999999,-91.4341429,restaurant,Illinois
65,Adams,China King,"204 Steamboat Bend Shopping Center, Hannibal",39.7125903,-91.3934173,restaurant,Illinois
66,Adams,Little Caesars Pizza,"365 McMasters Ave U.S. 61, Hannibal",39.7107845,-91.3922865,restaurant,Illinois
67,Adams,Jimmy John's,"345 U.S. 61, Hannibal",39.7106803,-91.3921902,restaurant,Illinois
68,Adams,Rustic Oak Grill & Pub,"203 Huck Finn Shopping Center, Hannibal",39.72366709999999,-91.3935016,restaurant,Illinois
69,Adams,Mark Twain Dinette: Maid-Rite Restaurant and Diner,"400 North Third Street Mark Twain Dinette & Drive-In, Hannibal",39.711808,-91.358442,restaurant,Illinois
70,Adams,Palermo Pizza & Subs,"702 Broadway, Hannibal",39.7073458,-91.3616985,restaurant,Illinois
71,Adams,Rumor Has It... Bar & Grill,"125 North Main Street, Hannibal",39.7104239,-91.3563535,restaurant,Illinois
72,Adams,Finn's Food & Spirits,"214 North Main Street, Hannibal",39.7110851,-91.35627769999999,restaurant,Illinois
73,Adams,Sonic Drive-In,"3939 McMasters Avenue, Hannibal",39.7178619,-91.39277469999999,restaurant,Illinois
74,Adams,Pizza Hut,"4839 McMasters Avenue, Hannibal",39.7267559,-91.3934668,restaurant,Illinois
75,Adams,Cassano's Pizza King,"2860 James Road, Hannibal",39.706102,-91.388674,restaurant,Illinois
76,Adams,McDonald's,"4407 McMasters Avenue, Hannibal",39.7205065,-91.3925304,restaurant,Illinois
77,Adams,Wendy's,"314 U.S. 61, Hannibal",39.7041244,-91.38856489999999,restaurant,Illinois
78,Adams,Anytime Fitness,"Huck Finn Shopping Center, Melgrove Lane #501, Hannibal",39.7248055,-91.3957772,gym,Illinois
79,Adams,Black Belt Karate Assn,"8965 HWY 36W UNIT I, Hannibal",39.712863,-91.431427,gym,Illinois
80,Adams,Barbara Stewart School-Dance,"1679 Westover Road, Hannibal",39.6924438,-91.411293,gym,Illinois
81,Adams,Twisted Juniper Yoga,"112 North Main Street, Hannibal",39.7102691,-91.3559193,gym,Illinois
82,Adams,Sky View Saddle Club,"12571 Old State Highway 79, New London",39.6443094,-91.3466851,gym,Illinois
83,Adams,TriCityQuest,"135 Corporate Square Drive, Hannibal",39.6839027,-91.41192620000001,gym,Illinois
84,Adams,YMCA of Hannibal,"1 YMCA Drive, Hannibal",39.7214263,-91.3859684,gym,Illinois
85,Adams,Fit Rx,"1233 Broadway, Hannibal",39.7043128,-91.3676,gym,Illinois
86,Adams,C.Allen korf Memorial Gymnasium,United States,39.7224235,-91.3891601,gym,Illinois
87,Adams,Karens Dance Studio,"900 Lyon Street, Hannibal",39.70500559999999,-91.36277,gym,Illinois
88,Adams,LNK Fitness 24,"117 North 3rd Street, Hannibal",39.7095909,-91.35764309999999,gym,Illinois
89,Adams,FullTilt Performance Center,"302 Broadway, Hannibal",39.7093199,-91.3572851,gym,Illinois
90,Adams,"Show Me Your Goga, LLC","7501 County Road 426, Hannibal",39.7071949,-91.49528099999999,gym,Illinois
91,Adams,Hannibal Regional Hospital,"6000 Hospital Drive, Hannibal",39.710562,-91.45013,healthcare,Illinois
92,Adams,Northeast Missouri Ambulatory Surgery Center,"98 Medical Drive, Hannibal",39.710868,-91.44759649999999,healthcare,Illinois
93,Adams,DaVita Hannibal Dialysis,"119 Progress Road, Hannibal",39.72939640000001,-91.4003893,healthcare,Illinois
94,Adams,Hannibal Regional Medical Building,"6500 Hospital Drive, Hannibal",39.71156809999999,-91.4502237,healthcare,Illinois
95,Adams,DaVita Hannibal At Home,"119 Progress Road, Hannibal",39.7294189,-91.4003893,healthcare,Illinois
96,Adams,Back 2 Health,"2918 Saint Marys Avenue, Hannibal",39.70691679999999,-91.3867187,healthcare,Illinois
97,Alexander,Dana-Thomas House,"301 E Lawrence Ave, Springfield, IL 62703, United States",39.7940495,-89.6515323,tourist,Illinois
98,Alexander,Lincoln Home National Historic Site,"413 S 8th St, Springfield, IL 62701, United States",39.7971412,-89.6451179,tourist,Illinois
99,Alexander,Illinois State Museum,"502 S Spring St, Springfield, IL 62706, United States",39.7966735,-89.6556548,tourist,Illinois
100,Alexander,Lincoln Memorial Garden and Nature Center,"2301 E Lake Shore Dr, Springfield, IL 62712, United States",39.696931,-89.59679799999999,tourist,Illinois
101,Alexander,Haypress Falls & Haypress Museum,"500 E, Eldred, IL 62027, United States",39.366325,-90.525975,tourist,Illinois
102,Alexander,World's Largest Pitchfork,"Casey, IL 62420, United States",39.31544179999999,-87.978876,tourist,Illinois
103,Alexander,Knight's Action Park,"1700 Knights, 1700 Knights Recreation Dr, Springfield, IL 62711, United States",39.7407142,-89.6838963,tourist,Illinois
104,Alexander,Old State Capitol,"526 E Adams St, Springfield, IL 62701, United States",39.8011444,-89.6485573,tourist,Illinois
105,Alexander,Lincoln's New Salem State Historic Site,"15588 History Ln, Petersburg, IL 62675, United States",39.9786614,-89.8470688,tourist,Illinois
106,Alexander,Cahokia Mounds State Historic Site,"Collinsville, IL, United States",38.6550643,-90.0618228,tourist,Illinois
107,Alexander,Clayville Town Historic Site,"125 Co Hwy 9C, Pleasant Plains, IL 62677, United States",39.8666348,-89.8970904,tourist,Illinois
108,Alexander,World's Largest Rocking Chair,"110 E Main St, Casey, IL 62420, United States",39.3000175,-87.9912207,tourist,Illinois
109,Alexander,Shrine of Our Lady of the Highways,"22353 W Frontage Rd, Raymond, IL 62560, United States",39.332646,-89.64356099999999,tourist,Illinois
110,Alexander,Sugar Creek Covered Bridge,"769 Covered Bridge Rd #587, Glenarm, IL 62536, United States",39.64039890000001,-89.6625069,tourist,Illinois
111,Alexander,Washington Park,"1501 S Grand Ave W, Springfield, IL 62704, United States",39.7889097,-89.6796444,tourist,Illinois
112,Alexander,Havana Nature Center,"416 Max D. Thompson River Road, Havana, IL 62644, United States",40.3041283,-90.0660535,tourist,Illinois
113,Alexander,Springfield and Central Illinois African American History Museum,"1440 Monument Ave, Springfield, IL 62702, United States",39.8199813,-89.65367859999999,tourist,Illinois
114,Alexander,Proud Raven Totem Pole,"101-199 W Edwards St, Springfield, IL 62756, United States",39.7964171,-89.6555535,tourist,Illinois
115,Alexander,Henrys Rabbit Ranch,"1107 Historic Old Rte 66, Staunton, IL 62088, United States",39.0043325,-89.7818839,tourist,Illinois
116,Alexander,Hippie Memorial,"N Oak St, Arcola, IL 61910, United States",39.685459,-88.3081765,tourist,Illinois
117,Alexander,Alexander's Steakhouse,"620 Bruns Ln, Springfield, IL 62702, United States",39.8089103,-89.6867951,restaurant,Illinois
118,Alexander,Alexanders Restaurant & Pancake House,"6725 W Pershing Rd, Stickney, IL 60402, United States",41.8211439,-87.79147329999999,restaurant,Illinois
119,Alexander,Alexander's Cafe,"1725 N State St, Elgin, IL 60123, United States",42.0743942,-88.2896851,restaurant,Illinois
120,Alexander,J. Alexander's Restaurant,"1410 16th St, Oak Brook, IL 60523, United States",41.8559237,-87.95504729999999,restaurant,Illinois
121,Alexander,Alexanders Cafe 64,"1650 W Main St, St. Charles, IL 60174, United States",41.91305699999999,-88.333641,restaurant,Illinois
122,Alexander,Grand Slam Bar & Grill,"804 Alsey Smith Rd, Alsey, IL 62610, United States",39.5587713,-90.43474560000001,restaurant,Illinois
123,Alexander,Alexander's Steakhouse,"1503 E College Ave, Normal, IL 61761, United States",40.5089576,-88.9582118,restaurant,Illinois
124,Alexander,J. Alexander's Restaurant,"4077 Lake Cook Rd, Northbrook, IL 60062, United States",42.1524313,-87.877467,restaurant,Illinois
125,Alexander,Alexander's Steakhouse Peoria,"100 Alexander Ave, Peoria, IL 61603, United States",40.7140274,-89.5586471,restaurant,Illinois
126,Alexander,Grainery,"210 IL-125, Pleasant Plains, IL 62677, United States",39.8763232,-89.9251144,restaurant,Illinois
127,Alexander,Alexander's Breakfast & Lunch Skokie,"5025 Oakton St, Skokie, IL 60077, United States",42.0260855,-87.7534391,restaurant,Illinois
128,Alexander,Alex's Restaurant,"3709 W Elm St, McHenry, IL 60050, United States",42.345,-88.2702778,restaurant,Illinois
129,Alexander,Dutchmen's Bar And Grill,"50 N Main St, Breese, IL 62230, United States",38.6073294,-89.5273138,restaurant,Illinois
130,Alexander,Alexander's Restaurant,"6158 N Clark St, Chicago, IL 60660, United States",41.9942766,-87.6704968,restaurant,Illinois
131,Alexander,River Port Restaurant & Lounge,"218 W Main St, Beardstown, IL 62618, United States",40.0177072,-90.43667099999999,restaurant,Illinois
132,Alexander,VELE,"3241 W Iles Ave, Springfield, IL 62711, United States",39.7721062,-89.71692089999999,restaurant,Illinois
133,Alexander,Maldaner's Restaurant,"222 S 6th St, Springfield, IL 62701, United States",39.7997207,-89.6477839,restaurant,Illinois
134,Alexander,Verda Mae's,"223 N Pearl St, Waverly, IL 62692, United States",39.5929613,-89.9537362,restaurant,Illinois
135,Alexander,La Esperanza Restaurant and Banquet Hall,"105 E 3rd St, Beardstown, IL 62618, United States",40.0167304,-90.43327599999999,restaurant,Illinois
136,Alexander,Tyson's Diner,"701 E 4th St, Beardstown, IL 62618, United States",40.018656,-90.4274734,restaurant,Illinois
137,Alexander,Advocate Sherman Hospital,"1425 N Randall Rd, Elgin, IL 60123, United States",42.0700246,,heathcare,Illinois
138,Alexander,Ascension Saint Alexius,"1555 Barrington Rd, Hoffman Estates, IL 60169, United States",42.0530103,,heathcare,Illinois
139,Alexander,Advocate Lutheran General Hospital,"1775 Dempster St, Park Ridge, IL 60068, United States",42.0385609,,heathcare,Illinois
140,Alexander,Taylorville Memorial Hospital,"201 E Pleasant St, Taylorville, IL 62568, United States",39.5551444,,heathcare,Illinois
141,Alexander,H S Hospital Services,"305 Boulder Creek Dr, Chatham, IL 62629, United States",39.6871122,,heathcare,Illinois
142,Alexander,Ascension Alexian Brothers,"800 Biesterfield Rd, Elk Grove Village, IL 60007, United States",42.00540520000001,,heathcare,Illinois
143,Alexander,KSB Hospital,"403 E 1st St, Dixon, IL 61021, United States",41.8445927,,heathcare,Illinois
144,Alexander,Herrin Hospital,"201 S 14th St, Herrin, IL 62948, United States",37.8009749,,heathcare,Illinois
145,Alexander,Northwestern Medicine Delnor Hospital,"300 S Randall Rd, Geneva, IL 60134, United States",41.88657,,heathcare,Illinois
146,Alexander,Mason District Hospital,"615 N Promenade St, Havana, IL 62644, United States",40.3052325,,heathcare,Illinois
147,Alexander,Edward Hospital - Main Campus,"801 S Washington St, Naperville, IL 60540, United States",41.760829,,heathcare,Illinois
148,Alexander,Gibson Area Hospital,"1120 N Melvin St, Gibson City, IL 60936, United States",40.4783898,,heathcare,Illinois
149,Alexander,St Joseph Memorial Hospital,"2 Hospital Dr, Murphysboro, IL 62966, United States",37.7740776,,heathcare,Illinois
150,Alexander,Alexian Brothers,"Hoffman Estates, IL 60169, United States",42.0556271,,heathcare,Illinois
151,Alexander,Jacksonville Memorial Hospital,"1600 W Walnut St, Jacksonville, IL 62650, United States",39.7463781,,heathcare,Illinois
152,Alexander,St. John hospital parking,"600 E Mason St, Springfield, IL 62701, United States",39.8040853,,heathcare,Illinois
153,Alexander,St. Alexius Hospital,"3933 S Broadway, St. Louis, MO 63118, United States",38.5834534,,heathcare,Illinois
154,Alexander,Iroquois Memorial Hospital,"200 E Fairman Ave, Watseka, IL 60970, United States",40.7661417,,heathcare,Illinois
155,Alexander,Javon Bea Hospital—Riverside,"8201 E Riverside Blvd, Rockford, IL 61114, United States",42.3169458,,heathcare,Illinois
156,Alexander,SwedishAmerican Hospital,"1401 E State St, Rockford, IL 61104, United States",42.2654181,,heathcare,Illinois
157,Alexander,Capri Restaurant & Pizza,"313 East State Street, Rockford",42.2684666,-89.0896391,restaurant,Illinois
158,Alexander,Stockholm Inn,"2420 Charles Street, Rockford",42.26086650000001,-89.0567737,restaurant,Illinois
159,Alexander,Subway,"3798 East State Street #201, Rockford",42.2660385,-89.0372263,restaurant,Illinois
160,Alexander,District Bar and Grill,"205 West State Street, Rockford",42.2713073,-89.0939854,restaurant,Illinois
161,Alexander,The Olympic Tavern,"2327 North Main Street, Rockford",42.2977031,-89.076831,restaurant,Illinois
162,Alexander,Sam's Pizza,"2134 Charles Street, Rockford",42.2615986,-89.0619461,restaurant,Illinois
163,Alexander,Don Carter Lanes,"4007 East State Street #2075, Rockford",42.26497860000001,-89.03602629999999,restaurant,Illinois
164,Alexander,Prairie Street Brewing Co.,"200 Prairie Street, Rockford",42.2730286,-89.08756869999999,restaurant,Illinois
165,Alexander,Johnny Pamcakes,"3700 East State Street, Rockford",42.2663584,-89.0397164,restaurant,Illinois
166,Alexander,Abreo,"515 East State Street, Rockford",42.2671948,-89.0870504,restaurant,Illinois
167,Alexander,Mary's Market Cafe & Bakery,"4431 East State Street, Rockford",42.2640372,-89.03076209999999,restaurant,Illinois
168,Alexander,Subway,"201 West State Street, Rockford",42.27118,-89.09386080000002,restaurant,Illinois
169,Alexander,Subway,"1120 East State Street, Rockford",42.26711519999999,-89.0785662,restaurant,Illinois
170,Alexander,Papa Johns Pizza,"1501 South Alpine Road, Rockford",42.25248799999999,-89.02942829999999,restaurant,Illinois
171,Alexander,John's Restaurant & Pizzeria,"2914 11th Street, Rockford",42.2318491,-89.0718677,restaurant,Illinois
172,Alexander,Popeyes Louisiana Kitchen,"3509 East State Street, Rockford",42.2657012,-89.04182949999999,restaurant,Illinois
173,Alexander,KFC,"1502 Kilburn Avenue, Rockford",42.288688,-89.1037082,restaurant,Illinois
174,Alexander,Pino's on Main Pizza,"2511 North Main Street, Rockford",42.2999328,-89.07666789999999,restaurant,Illinois
175,Alexander,El Burrito Loco,"2430 Auburn Street, Rockford",42.2882526,-89.09610939999999,restaurant,Illinois
176,Alexander,Sisters Thai Cafe,"514 East State Street, Rockford",42.267547,-89.0869318,restaurant,Illinois
177,Alexander,YMCA of Rock River Valley SwedishAmerican Riverfront YMCA,"200 Y Boulevard, Rockford",42.27859249999999,-89.0794097,gym,Illinois
178,Alexander,815Yoga Collective,"116 North Madison Street Unit 202, Rockford",42.2694549,-89.0898842,gym,Illinois
179,Alexander,FitnessWorks,"3619 Morsay Drive, Rockford",42.26765,-89.0391255,gym,Illinois
180,Alexander,100 Strong,"4111 Auburn Street, Rockford",42.2885394,-89.1237907,gym,Illinois
181,Alexander,Michael's Fitness & Personal,"2322 Charles Street, Rockford",42.2608766,-89.05875619999999,gym,Illinois
182,Alexander,Rockford Barbell,"213 North 3rd Street, Rockford",42.2682545,-89.08473889999999,gym,Illinois
183,Alexander,Sacred Peace Theory,"317 Market Street, Rockford",42.2692674,-89.088635,gym,Illinois
184,Alexander,Maximum Performance Rockford,"104 South Madison Street, Rockford",42.268608,-89.0900497,gym,Illinois
185,Alexander,Namaste Studios,"223 East State Street, Rockford",42.2687998,-89.09032619999999,gym,Illinois
186,Alexander,Midtown Fitness,"323 7th Street, Rockford",42.2640189,-89.0811318,gym,Illinois
187,Alexander,Elisha Louis,"811-899 Haskell Avenue, Rockford",42.280278,-89.09218229999999,gym,Illinois
188,Alexander,Club Guerrero's,"102 15th Avenue, Rockford",42.2511358,-89.10165789999999,gym,Illinois
189,Alexander,Santosha Yoga Studio,"2211 East State Street, Rockford",42.2668352,-89.0598481,gym,Illinois
190,Alexander,The Calm Company Yoga,"1404 North Main Street #3, Rockford",42.287371,-89.0810154,gym,Illinois
191,Alexander,FITNESS BY MIRIAM,"3701 East State Street suite H, Rockford",42.2657125,-89.03960839999999,gym,Illinois
192,Alexander,Heart Hospital at SwedishAmerican,"1401 East State Street, Rockford",42.2646236,-89.0735084,healthcare,Illinois
193,Alexander,SwedishAmerican Hospital,"1401 East State Street, Rockford",42.2654181,-89.0749517,healthcare,Illinois
194,Alexander,OSF Saint Anthony Medical Center,"5666 East State Street, Rockford",42.2694783,-89.0076483,healthcare,Illinois
195,Alexander,Van Matre Encompass Health Rehabilitation Institute,"950 South Mulford Road, Rockford",42.2585304,-88.9968671,healthcare,Illinois
196,Alexander,OSF Medical Group - Diabetes & Endocrinology,"5668 East State Street #2000, Rockford",42.2665555,-89.0066095,healthcare,Illinois
197,Alexander,OSF Medical Group - Primary Care,"621 Roxbury Road, Rockford",42.2713432,-89.0101547,healthcare,Illinois
198,Alexander,Swedish American EMS Building,"4120 Charles Street, Rockford",42.2544612,-89.03432289999999,healthcare,Illinois
199,Alexander,Rockford Orthopedic,"324 Roxbury Road, Rockford",42.268028,-89.012162,healthcare,Illinois
200,Alexander,Loyola Hepatology Clinic Rockford,"5666 East State Street, Rockford",42.2695614,-89.007775,healthcare,Illinois
201,Alexander,DaVita Roxbury Dialysis Center,"622 Roxbury Road, Rockford",42.2718674,-89.011709,healthcare,Illinois
202,Alexander,DaVita Roxbury At Home,"622 Roxbury Road, Rockford",42.2718938,-89.01165639999999,healthcare,Illinois
203,Alexander,OSF Medical Group - Lung & Pulmonology,"535 Roxbury Road, Rockford",42.2703475,-89.0105438,healthcare,Illinois
204,Alexander,OSF Medical Group - Obstetrics & Gynecology,"621 Roxbury Road, Rockford",42.2713513,-89.0099413,healthcare,Illinois
205,Alexander,OSF Healing Pathways,"5666 East State Street, Rockford",42.2695614,-89.007775,healthcare,Illinois
206,Alexander,OSF Medical Group - Orthopedic Surgery,"5668 East State Street #400, Rockford",42.2665555,-89.0066095,healthcare,Illinois
207,Alexander,Rockford VA Clinic,"816 Featherstone Road, Rockford",42.2784881,-88.998572,healthcare,Illinois
208,Alexander,Mile Square Health Center - L.P. Johnson Rockford,"1221 East State Street, Rockford",42.2666535,-89.0767272,healthcare,Illinois
209,Alexander,OSF Medical Group - Surgery,"5668 East State Street # 1000, Rockford",42.2665555,-89.0066095,healthcare,Illinois
210,Alexander,OSF Medical Group - Infectious Disease,"698 Featherstone Road, Rockford",42.2767829,-88.9969419,healthcare,Illinois
211,Alexander,OSF Medical Group - Primary Care,"698 Featherstone Road #250, Rockford",42.2767829,-88.9969419,healthcare,Illinois
212,Bond,Cahokia Mounds State Historic Site,"Collinsville, IL, United States",38.6550643,-90.0618228,tourist,Illinois
213,Bond,Starved Rock State Park,"2678 E 875th Rd, Oglesby, IL 61348, United States",41.3192311,-89.00598190000001,tourist,Illinois
214,Bond,Navy Pier,"600 E Grand Ave, Chicago, IL 60611, United States",41.8918633,-87.6050944,tourist,Illinois
215,Bond,Worlds Largest Catsup Bottle,"800 S Morrison Ave, Collinsville, IL 62234, United States",38.6629213,-89.9823174,tourist,Illinois
216,Bond,Shawnee National Forest,"Herod, IL 62946, United States",37.5625354,-89.389057,tourist,Illinois
217,Bond,Kaskaskia Dragon,"2401-2599 Progress W Dr, Vandalia, IL 62471, United States",38.9744534,-89.1198206,tourist,Illinois
218,Bond,Henrys Rabbit Ranch,"1107 Historic Old Rte 66, Staunton, IL 62088, United States",39.0043325,-89.7818839,tourist,Illinois
219,Bond,Matthiessen State Park,"2500 IL-178, Oglesby, IL 61348, United States",41.2959796,-89.0244476,tourist,Illinois
220,Bond,Lincoln Park Zoo,"Chicago, IL 60614, United States",41.921703,-87.6336403,tourist,Illinois
221,Bond,Hippie Memorial,"N Oak St, Arcola, IL 61910, United States",39.685459,-88.3081765,tourist,Illinois
222,Bond,Kinmundy Log Cabin Village,"6260 Gesell Rd, Kinmundy, IL 62854, United States",38.7844084,-88.8562453,tourist,Illinois
223,Bond,Buckingham Fountain,"301 S Columbus Dr, Chicago, IL 60605, United States",41.8757944,-87.6189483,tourist,Illinois
224,Bond,Millennium Park,"201 E Randolph St, Chicago, IL 60602, United States",41.8825524,-87.62255139999999,tourist,Illinois
225,Bond,Two Story Outhouse,"1022 S Pine St, Gays, IL 61928, United States",39.458877,-88.4955995,tourist,Illinois
226,Bond,World's Largest Rocking Chair,"110 E Main St, Casey, IL 62420, United States",39.3000175,-87.9912207,tourist,Illinois
227,Bond,World's Largest Pitchfork,"Casey, IL 62420, United States",39.31544179999999,-87.978876,tourist,Illinois
228,Bond,Cloud Gate,"201 E Randolph St, Chicago, IL 60602, United States",41.8826572,-87.6233039,tourist,Illinois
229,Bond,Willoughby Heritage Farm,"631 Willoughby Ln, Collinsville, IL 62234, United States",38.6747222,-90.0,tourist,Illinois
230,Bond,Thompson Mill Covered Bridge,"1375 E 225 N Rd, Cowden, IL 62422, United States",39.2586392,-88.8181237,tourist,Illinois
231,Bond,Rock Springs Conservation Area,"3939 Nearing Ln, Decatur, IL 62521, United States",39.8277135,-89.01971979999999,tourist,Illinois
232,Bond,5881 bond ave centreville il,"5881 Bond Ave, East St Louis, IL 62207, United States",38.571686,-90.1072392,restaurant,Illinois
233,Bond,Goodfellas,"4218 Bond Ave, East St Louis, IL 62207, United States",38.5851728,-90.12423319999999,restaurant,Illinois
234,Bond,Pops 5,"2439 Bond Ave, East St Louis, IL 62207, United States",38.60124649999999,-90.1417378,restaurant,Illinois
235,Bond,Do Drop Inn,"15281 IL-109, Dow, IL 62022, United States",39.0037955,-90.3146168,restaurant,Illinois
236,Bond,Soul Hittas & Catering,"5851 Bond Ave, East St Louis, IL 62207, United States",38.5717786,-90.1076245,restaurant,Illinois
237,Bond,Bottoms Up Family Bar & Grill,"3683 Neunert Rd, Jacob, IL 62950, United States",37.72173799999999,-89.5452294,restaurant,Illinois
238,Bond,Bond's Grill-N-Chill,"102 S Division St, Norris City, IL 62869, United States",37.9806365,-88.3290252,restaurant,Illinois
239,Bond,THE FIRE BARN,"422 N Center St, Durand, IL 61024, United States",42.4366694,-89.3324722,restaurant,Illinois
240,Bond,Thyme Craft Kitchen,"405 5th St, Peru, IL 61354, United States",41.3292934,-89.1108459,restaurant,Illinois
241,Bond,Haze Smokehouse,"159 Bucklin St, La Salle, IL 61301, United States",41.3286503,-89.0999839,restaurant,Illinois
242,Bond,Jones House,"520 S State St, Roodhouse, IL 62082, United States",39.4799055,-90.3757196,restaurant,Illinois
243,Bond,B. Restaurant,"3500 Midwest Rd, Oak Brook, IL 60523, United States",41.82141499999999,-87.972004,restaurant,Illinois
244,Bond,"Glenwood Oaks & Dos Caminos Seafood | Restaurant, Banquets & Catering","106 N Main St, Glenwood, IL 60425, United States",41.5479737,-87.6200649,restaurant,Illinois
245,Bond,Bossanova,"112 W 3rd St, Alton, IL 62002, United States",38.8912945,-90.1871432,restaurant,Illinois
246,Bond,Joe's Pizza,"128 S State St, Roodhouse, IL 62082, United States",39.4834563,-90.3734139,restaurant,Illinois
247,Bond,Rip's Tavern,"311 N Main St, Ladd, IL 61329, United States",41.3839048,-89.2190078,restaurant,Illinois
248,Bond,Mainbao Chinese Restaurant,"2465 E Division St, Diamond, IL 60416, United States",41.2881778,-88.2500625,restaurant,Illinois
249,Bond,O's Place,"141 S Chestnut St, Chebanse, IL 60922, United States",41.0024187,-87.9097095,restaurant,Illinois
250,Bond,Lock 16 Cafe & Visitor Center,"754 1st St, La Salle, IL 61301, United States",41.3280776,-89.0941952,restaurant,Illinois
251,Bond,54th Street Scratch Grill & Bar,"3140 Green Mt Crossing Dr, Shiloh, IL 62269, United States",38.5741667,-89.9280556,restaurant,Illinois
252,Bond,Touchette Regional Hospital,"5900 Bond Ave, Centreville, IL 62207, United States",38.57022509999999,,heathcare,Illinois
253,Bond,Memorial Hospital of Carbondale,"405 W Jackson St, Carbondale, IL 62901, United States",37.7276593,,heathcare,Illinois
254,Bond,UChicago Medicine Ingalls Memorial,"1 Ingalls Dr, Harvey, IL 60426, United States",41.60745439999999,,heathcare,Illinois
255,Bond,University of Illinois Hospital,"1740 W Taylor St, Chicago, IL 60612, United States",41.8694785,,heathcare,Illinois
256,Bond,University of Illinois Hospital,"4636 S Bishop St, Chicago, IL 60609, United States",41.8095763,,heathcare,Illinois
257,Bond,SSM Health St. Mary's Hospital - Centralia,"400 N Pleasant Ave, Centralia, IL 62801, United States",38.5301765,,heathcare,Illinois
258,Bond,Northwestern Medicine Palos Hospital,"12251 S 80th Ave, Palos Heights, IL 60463, United States",41.6691879,,heathcare,Illinois
259,Bond,Advocate Trinity Hospital,"2320 E 93rd St, Chicago, IL 60617, United States",41.7263401,,heathcare,Illinois
260,Bond,Elmhurst Hospital - Main Campus,"155 E Brush Hill Rd, Elmhurst, IL 60126, United States",41.8640197,,heathcare,Illinois
261,Bond,Northwest Community Healthcare/Hospital,"800 W Central Rd, Arlington Heights, IL 60005, United States",42.0685668,,heathcare,Illinois
262,Bond,Salem Township Hospital,"1201 Ricker Dr, Salem, IL 62881, United States",38.64167,,heathcare,Illinois
263,Bond,KSB Hospital,"403 E 1st St, Dixon, IL 61021, United States",41.8445927,,heathcare,Illinois
264,Bond,Mitchell Hospital,"5841 S Maryland Ave, Chicago, IL 60637, United States",41.78920309999999,,heathcare,Illinois
265,Bond,Holy Cross Hospital,"2701 W 68th St, Chicago, IL 60629, United States",41.769115,,heathcare,Illinois
266,Bond,Northwestern Medicine Woodstock Hospital,"3701 Doty Rd, Woodstock, IL 60098, United States",42.2753451,,heathcare,Illinois
267,Bond,Roseland Community Hospital,"45 W 111th St, Chicago, IL 60628, United States",41.6923179,,heathcare,Illinois
268,Bond,Hospital garage,"259 E Huron St, Chicago, IL 60611, United States",41.894782,,heathcare,Illinois
269,Bond,Advocate Sherman Hospital,"1425 N Randall Rd, Elgin, IL 60123, United States",42.0700246,,heathcare,Illinois
270,Bond,Edward Hospital - Main Campus,"801 S Washington St, Naperville, IL 60540, United States",41.760829,,heathcare,Illinois
271,Bond,UChicago Medicine AdventHealth Medical Group Maternal Fetal Medicine at GlenOaks,"701 Winthrop Ave Floor, Ste.101, Glendale Heights, IL 60139, United States",41.9149676,,heathcare,Illinois
272,Bond,Dave & Buster's Addison,"1155 North Swift Road, Addison",41.9481663,-88.0387574,restaurant,Illinois
273,Bond,"K1 Speed - Indoor Go Karts, Corporate Event Venue, Team Building Activities","2381 Army Trail Road, Addison",41.9322605,-88.0461797,restaurant,Illinois
274,Bond,Bowlero Glendale Heights,"558 East North Avenue, Glendale Heights",41.904552,-88.063805,restaurant,Illinois
275,Bond,Ki's Steak & Seafood Restaurant,"705 North Avenue, Glendale Heights",41.90308479999999,-88.0575345,restaurant,Illinois
276,Bond,Blue Line Bar & Grill,"475 South Grace Street, Addison",41.9169184,-88.0075658,restaurant,Illinois
277,Bond,Subway,"159 East North Avenue #10, Glendale Heights",41.9009469,-88.082933,restaurant,Illinois
278,Bond,Jimmy John's,"1000 South Rohlwing Road, Lombard",41.9048772,-88.0349785,restaurant,Illinois
279,Bond,Granny's Restaurant,"190 North Swift Road, Addison",41.93192500000001,-88.043172,restaurant,Illinois
280,Bond,Village Tavern & Grill of Carol Stream,"291 South Schmale Road, Carol Stream",41.89644870000001,-88.1014094,restaurant,Illinois
281,Bond,El Famous Burrito,"1165 Bloomingdale Road, Glendale Heights",41.9016329,-88.0811781,restaurant,Illinois
282,Bond,Schnitzel Platz,"729 North Avenue, Glendale Heights",41.903075,-88.05589169999999,restaurant,Illinois
283,Bond,Charkies,"570 North Schmale Road, Carol Stream",41.9180697,-88.1018339,restaurant,Illinois
284,Bond,Rosati's Pizza,"877 East Geneva Road, Carol Stream",41.88867859999999,-88.09350309999999,restaurant,Illinois
285,Bond,McDonald's,"292 East Army Trail Road, Glendale Heights",41.9370616,-88.07681319999999,restaurant,Illinois
286,Bond,Starbucks,"596 East North Avenue, Carol Stream",41.90159999999999,-88.1014545,restaurant,Illinois
287,Bond,Augustino's Rock and Roll Deli and Grill,"246 South Schmale Road, Carol Stream",41.8979406,-88.102554,restaurant,Illinois
288,Bond,TacoGyro,"1591 Glen Ellyn Road, Glendale Heights",41.91789070000001,-88.0612099,restaurant,Illinois
289,Bond,Wendy's,"525 East North Avenue, Glendale Heights",41.902834,-88.0645072,restaurant,Illinois
290,Bond,Nay Restaurant,"365 East North Avenue, Glendale Heights",41.9025695,-88.0746199,restaurant,Illinois
291,Bond,"K1 Paddock Lounge - Sports Bar & Restaurant - Addison, IL","2381 Army Trail Road, Addison",41.93225879999999,-88.0461729,restaurant,Illinois
292,Bond,Glendale Heights Sports Hub,"250 Civic Centre Plaza, Glendale Heights",41.91933509999999,-88.0784212,gym,Illinois
293,Bond,Planet Fitness,"525 West Lake Street, Addison",41.9366443,-88.001863,gym,Illinois
294,Bond,Palmer's Gymnastics,"266 Glen Ellyn Road # 101, Bloomingdale",41.94310290000001,-88.0622825,gym,Illinois
295,Bond,Tumbling Times,"400 South Rohlwing Road, Addison",41.9182717,-88.03299129999999,gym,Illinois
296,Bond,Hustle Strength & Performance - Addison,"1010 West Fullerton Avenue # H, Addison",41.919974,-88.01406419999999,gym,Illinois
297,Bond,Afterburner Bootcamp,"160 South Bloomingdale Road D/E, Bloomingdale",41.9516535,-88.08247469999999,gym,Illinois
298,Bond,Hard Gainers Athletics,"1120 Main Street Suite 4, Glendale Heights",41.9003337,-88.06391900000001,gym,Illinois
299,Bond,Addison Park District Club Fitness,"1776 West Centennial Place, Addison",41.9449386,-88.0309207,gym,Illinois
300,Bond,LA Fitness,"265 East Army Trail Road, Glendale Heights",41.9359245,-88.07812500000001,gym,Illinois
301,Bond,Anytime Fitness,"338 East North Avenue, Lombard",41.9056077,-88.01001459999999,gym,Illinois
302,Bond,VEILED FITNESS,"Near Army Trail Road and Rohlwing Road in, Addison",41.9312818,-88.0320103,gym,Illinois
303,Bond,Addison Park,Addison,41.94436169999999,-88.0311842,gym,Illinois
304,Bond,"Centennial Park, Addison","495 Fullerton Avenue, Glendale Heights",41.9179403,-88.06706729999999,gym,Illinois
305,Bond,Centennial Yoga Studio,"495 Fullerton Avenue #21, Glendale Heights",41.9179493,-88.0671002,gym,Illinois
306,Bond,XSport Fitness,"1421 West Lake Street, Addison",41.9454518,-88.0238933,gym,Illinois
307,Bond,Nick's Sweat Shop,"1200 Capitol Drive, Addison",41.9230049,-88.0185412,gym,Illinois
308,Bond,The Sports Pilates,"1048 Republic Drive #32, Addison",41.9231111,-88.0151167,gym,Illinois
309,Bond,Vertical Endeavors–Glendale Heights,"246 Windy Point Drive, Glendale Heights",41.9276144,-88.08023879999999,gym,Illinois
310,Bond,Santiago Training Center,"1000 North Rohlwing Road APT 8, Lombard",41.9049029,-88.0357094,gym,Illinois
311,Bond,10th Planet Jiu Jitsu Lombard,"1060 Dupage Avenue, Lombard",41.90962210000001,-88.02080319999999,gym,Illinois
312,Bond,Fresenius Medical Care at Adventist Glen Oaks Medical Center,"701 Winthrop Avenue Floor, Ste.101, Glendale Heights",41.914654,-88.057238,healthcare,Illinois
313,Bond,Edward-Elmhurst Health Center - Lombard,"130 South Main Street, Lombard",41.8847903,-88.0187334,healthcare,Illinois
314,Bond,UChicago Medicine AdventHealth Medical Group Maternal Fetal Medicine at GlenOaks,"701 Winthrop Avenue Floor, Ste.101, Glendale Heights",41.91496759999999,-88.0572047,healthcare,Illinois
315,Bond,Edward-Elmhurst Health Center - Addison,"303 West Lake Street, Addison",41.9350148,-87.996337,healthcare,Illinois
316,Bond,Mohammed Hussain,"701 Winthrop Avenue, GLENDALE",41.9152811,-88.0570138,healthcare,Illinois
317,Bond,AMITA Health Medical Laboratory Glendale Heights,"701 Winthrop Avenue, Glendale Heights",41.9152811,-88.0570138,healthcare,Illinois
318,Bond,AdventHealth GlenOaks ER,"701 Winthrop Avenue Ste.101, Glendale Heights",41.9152811,-88.0570138,healthcare,Illinois
319,Bond,AMITA Health Outpatient Pharmacy GlenOaks,"Emergency Department Lobby, 701 Winthrop Avenue Floor, Ste.101, Glendale Heights",41.9152811,-88.0570138,healthcare,Illinois
320,Bond,DaVita Salt Creek Dialysis,"196 North Avenue, Villa Park",41.9058723,-87.9823974,healthcare,Illinois
321,Bond,"Chicagoland Retina, Ltd","303 West Lake Street Unit 303, Addison",41.9350148,-87.996337,healthcare,Illinois
322,Bond,Broadway Medical Center,"414 West Lake Street, Addison",41.93688009999999,-87.9990479,healthcare,Illinois
323,Bond,Doktorica Biljana,"715 West Lake Street, Addison",41.9400042,-88.0083274,healthcare,Illinois
324,Bond,AMITA Health Therapeutic Day School South Campus/Adolescent Day Hospital,"1N450 Main Street, Glendale Heights",41.896995,-88.0642137,healthcare,Illinois
325,Bond,Clinica,"1339 West Lake Street, Addison",41.9449996,-88.0207156,healthcare,Illinois
326,Boone,Boone County Museum of History,"314 S State St, Belvidere, IL 61008, United States",42.2573658,-88.8400848,tourist,Illinois
327,Boone,Rock Cut State Park,"7223 West Lane Rd, Caledonia, IL, United States",42.3540427,-88.9861098,tourist,Illinois
328,Boone,Spencer Park,"899 Appleton Rd, Belvidere, IL 61008, United States",42.2608871,-88.8688955,tourist,Illinois
329,Boone,Midway Village Museum,"6799 Guilford Rd, Rockford, IL 61107, United States",42.28046920000001,-88.9844993,tourist,Illinois
330,Boone,Burpee Museum of Natural History,"737 N Main St, Rockford, IL 61103, United States",42.277439,-89.0883157,tourist,Illinois
331,Boone,Historic Auto Attractions,"13825 Metric Rd, Roscoe, IL 61073, United States",42.461352,-89.0142238,tourist,Illinois
332,Boone,Discovery Center Museum,"711 N Main St, Rockford, IL 61103, United States",42.2771046,-89.0894304,tourist,Illinois
333,Boone,Illinois Railway Museum,"7000 Olson Rd, Union, IL 60180, United States",42.2277838,-88.52859169999999,tourist,Illinois
334,Boone,Severson Dells Nature Center,"8786 Montague Rd, Rockford, IL 61102, United States",42.2126571,-89.2068966,tourist,Illinois
335,Boone,Hickory Knolls Discovery Center,"3795 Campton Hills Dr, St. Charles, IL 60175, United States",41.9112568,-88.36812069999999,tourist,Illinois
336,Boone,Baumann Park,"Cherry Valley, IL 61016, United States",42.2302852,-88.9569466,tourist,Illinois
337,Boone,Fridh Park,"1420 W 9th St, Belvidere, IL 61008, United States",42.2445002,-88.8576854,tourist,Illinois
338,Boone,Woodstock Square Historic District,"121 W Van Buren St, Woodstock, IL 60098, United States",42.314773,-88.4472918,tourist,Illinois
339,Boone,Nicholas Conservatory & Gardens,"1354 N 2nd St, Rockford, IL 61107, United States",42.2822933,-89.0707044,tourist,Illinois
340,Boone,Belvidere Park,"1006 W Lincoln Ave, Belvidere, IL 61008, United States",42.2558416,-88.8545054,tourist,Illinois
341,Boone,Volo Bog State Natural Area,"28478 Brandenburg Rd, Ingleside, IL 60041, United States",42.35144,-88.1884575,tourist,Illinois
342,Boone,Kinnikinnick Creek Nature Preserve,"Caledonia, IL 61011, United States",42.4140732,-88.9263417,tourist,Illinois
343,Boone,Pettit Memorial Chapel,"110 N Main St, Belvidere, IL 61008, United States",42.2692568,-88.84784309999999,tourist,Illinois
344,Boone,Frank Lloyd Wright's Laurent House,"4646 Spring Brook Rd, Rockford, IL 61114, United States",42.2998082,-89.02429149999999,tourist,Illinois
345,Boone,Ellwood House Museum,"420 Linden Pl, DeKalb, IL 60115, United States",41.9353814,-88.7538206,tourist,Illinois
346,Boone,Boone County Family Restaurant,"4481 IL-173, Caledonia, IL 61011, United States",42.3710149,-88.8519505,restaurant,Illinois
347,Boone,Steam Plant Family Restaurant,"123 Meadow St, Belvidere, IL 61008, United States",42.2581745,-88.8407958,restaurant,Illinois
348,Boone,Ned's Diner,"2132 US-20 BUS, Belvidere, IL 61008, United States",42.2767123,-88.8979526,restaurant,Illinois
349,Boone,Wild Cherries,"413 Southtowne Dr, Belvidere, IL 61008, United States",42.2418002,-88.84405439999999,restaurant,Illinois
350,Boone,The Shortline,"118 Buchanan St, Belvidere, IL 61008, United States",42.2561692,-88.8391536,restaurant,Illinois
351,Boone,Uncle John's,"1053 Logan Ave, Belvidere, IL 61008, United States",42.2529402,-88.8268848,restaurant,Illinois
352,Boone,Sips and Sprinkles,"221 W Locust St, Belvidere, IL 61008, United States",42.25640250000001,-88.84325729999999,restaurant,Illinois
353,Boone,Gomez Restaurant & Bar,"217 S State St, Belvidere, IL 61008, United States",42.2572165,-88.8415229,restaurant,Illinois
354,Boone,Coach’s Corner Bar & Grill,"622 S State St, Belvidere, IL 61008, United States",42.2543792,-88.8388968,restaurant,Illinois
355,Boone,Tom & Jerry's Restaurant,"2040 N State St, Belvidere, IL 61008, United States",42.2730942,-88.8641205,restaurant,Illinois
356,Boone,Taqueria El Molcajete,"409 S State St, Belvidere, IL 61008, United States",42.25610409999999,-88.8402622,restaurant,Illinois
357,Boone,Chilangos Mexican Restaurant of Belvidere,"396 W Chrysler Dr, Belvidere, IL 61008, United States",42.2396391,-88.8435374,restaurant,Illinois
358,Boone,Gomez Taquiza Food Truck,"1940 N State St, Belvidere, IL 61008, United States",42.2721832,-88.8624866,restaurant,Illinois
359,Boone,Rosa's Pizza & Italian Restaurant,"130 W Main St, Capron, IL 61012, United States",42.3992833,-88.74141259999999,restaurant,Illinois
360,Boone,Olivo Taco - Belvidere,"603 S State St, Belvidere, IL 61008, United States",42.2549119,-88.83929739999999,restaurant,Illinois
361,Boone,Marvin’s Tacos,"1210 W Locust St, Belvidere, IL 61008, United States",42.2526704,-88.8607007,restaurant,Illinois
362,Boone,Backstop Bar & Grill,"1800 Union Ave, Belvidere, IL 61008, United States",42.242566,-88.84266749999999,restaurant,Illinois
363,Boone,Lung Fung Restaurant,"118 N State St, Belvidere, IL 61008, United States",42.25964,-88.843964,restaurant,Illinois
364,Boone,Rest Area,"Belvidere, IL 61008, United States",42.23405289999999,-88.8344564,restaurant,Illinois
365,Boone,The Firebox Restaurant & Pizzeria,"120 Buchanan St, Belvidere, IL 61008, United States",42.2562415,-88.8390194,restaurant,Illinois
366,Boone,Herrin Hospital,"201 S 14th St, Herrin, IL 62948, United States",37.8009749,,heathcare,Illinois
367,Boone,KSB Hospital,"403 E 1st St, Dixon, IL 61021, United States",41.8445927,,heathcare,Illinois
368,Boone,SIH hospital,"117 E Clark St, Harrisburg, IL 62946, United States",37.7298937,,heathcare,Illinois
369,Boone,SwedishAmerican Hospital,"1401 E State St, Rockford, IL 61104, United States",42.2654181,,heathcare,Illinois
370,Boone,Carlinville Area Hospital,"20733 N Broad St, Carlinville, IL 62626, United States",39.29891910000001,,heathcare,Illinois
371,Boone,OSF Saint Anthony Medical Center,"5666 E State St, Rockford, IL 61107, United States",42.2694783,,heathcare,Illinois
372,Boone,Javon Bea Hospital—Rockton,"2400 N Rockton Ave, Rockford, IL 61103, United States",42.2979626,,heathcare,Illinois
373,Boone,Javon Bea Hospital—Riverside,"8201 E Riverside Blvd, Rockford, IL 61114, United States",42.3169458,,heathcare,Illinois
374,Boone,University of Illinois Hospital,"4636 S Bishop St, Chicago, IL 60609, United States",41.8095763,,heathcare,Illinois
375,Boone,Northwestern Medicine Woodstock Hospital,"3701 Doty Rd, Woodstock, IL 60098, United States",42.2753451,,heathcare,Illinois
376,Boone,Northwestern Medicine Kishwaukee Hospital,"1 Kish Hospital Dr, DeKalb, IL 60115, United States",41.9612772,,heathcare,Illinois
377,Boone,Advocate Lutheran General Hospital,"1775 Dempster St, Park Ridge, IL 60068, United States",42.0385609,,heathcare,Illinois
378,Boone,Ascension Alexian Brothers,"800 Biesterfield Rd, Elk Grove Village, IL 60007, United States",42.00540520000001,,heathcare,Illinois
379,Boone,Northwestern Medicine McHenry Hospital,"4201 Medical Centre Dr, McHenry, IL 60050, United States",42.3182121,,heathcare,Illinois
380,Boone,Edward Hospital - Main Campus,"801 S Washington St, Naperville, IL 60540, United States",41.760829,,heathcare,Illinois
381,Boone,Ascension Saint Alexius,"1555 Barrington Rd, Hoffman Estates, IL 60169, United States",42.0530103,,heathcare,Illinois
382,Boone,Illini Community Hospital,"640 W Washington St, Pittsfield, IL 62363, United States",39.6074013,,heathcare,Illinois
383,Boone,Jersey Community Hospital,"400 Maple Summit Rd, Jerseyville, IL 62052, United States",39.1104285,,heathcare,Illinois
384,Boone,SwedishAmerican Medical Center/Belvidere,"1625 S State St, Belvidere, IL 61008, United States",42.2429944,,heathcare,Illinois
385,Boone,Mercyhealth,"2400 N Rockton Ave, Rockford, IL 61103, United States",42.2983389,,heathcare,Illinois
386,Boone,Little Caesars Pizza,"617 Harlem Road, Machesney Park",42.338891,-89.052129,restaurant,Illinois
387,Boone,Giordano's,"333 Executive Parkway, Rockford",42.271046,-88.99875689999999,restaurant,Illinois
388,Boone,Image lounge and restaurant,"5524 Auburn Street, Rockford",42.287713,-89.1471929,restaurant,Illinois
389,Boone,The Olympic Tavern,"2327 North Main Street, Rockford",42.2977031,-89.076831,restaurant,Illinois
390,Boone,Subway,"3798 East State Street #201, Rockford",42.2660385,-89.0372263,restaurant,Illinois
391,Boone,Capri Restaurant & Pizza,"313 East State Street, Rockford",42.2684666,-89.0896391,restaurant,Illinois
392,Boone,Subway,"425 North Springfield Avenue, Rockford",42.2813501,-89.14448589999999,restaurant,Illinois
393,Boone,Subway,"3021 North Rockton Avenue, Rockford",42.30404679999999,-89.0965695,restaurant,Illinois
394,Boone,Stockholm Inn,"2420 Charles Street, Rockford",42.26086650000001,-89.0567737,restaurant,Illinois
395,Boone,District Bar and Grill,"205 West State Street, Rockford",42.2713073,-89.0939854,restaurant,Illinois
396,Boone,Alchemy at Aldeen,"1902 Reid Farm Road, Rockford",42.2910505,-88.9865916,restaurant,Illinois
397,Boone,Subway,"3313 11th Street, Rockford",42.2245761,-89.072727,restaurant,Illinois
398,Boone,Papa Johns Pizza,"1501 South Alpine Road, Rockford",42.25248799999999,-89.02942829999999,restaurant,Illinois
399,Boone,Don Carter Lanes,"4007 East State Street #2075, Rockford",42.26497860000001,-89.03602629999999,restaurant,Illinois
400,Boone,Subway Development Office,"720 North Mulford Road, Rockford",42.2760495,-89.0001867,restaurant,Illinois
401,Boone,Mary's Market Cafe & Bakery,"4431 East State Street, Rockford",42.2640372,-89.03076209999999,restaurant,Illinois
402,Boone,Johnny Pamcakes,"3700 East State Street, Rockford",42.2663584,-89.0397164,restaurant,Illinois
403,Boone,Sam's Pizza,"2134 Charles Street, Rockford",42.2615986,-89.0619461,restaurant,Illinois
404,Boone,Prairie Street Brewing Co.,"200 Prairie Street, Rockford",42.2730286,-89.08756869999999,restaurant,Illinois
405,Boone,Abreo,"515 East State Street, Rockford",42.2671948,-89.0870504,restaurant,Illinois
406,Boone,YMCA of Rock River Valley SwedishAmerican Riverfront YMCA,"200 Y Boulevard, Rockford",42.27859249999999,-89.0794097,gym,Illinois
407,Boone,815Yoga Collective,"116 North Madison Street Unit 202, Rockford",42.2694549,-89.0898842,gym,Illinois
408,Boone,FitnessWorks,"3619 Morsay Drive, Rockford",42.26765,-89.0391255,gym,Illinois
409,Boone,Michael's Fitness & Personal,"2322 Charles Street, Rockford",42.2608766,-89.05875619999999,gym,Illinois
410,Boone,100 Strong,"4111 Auburn Street, Rockford",42.2885394,-89.1237907,gym,Illinois
411,Boone,Rockford Barbell,"213 North 3rd Street, Rockford",42.2682545,-89.08473889999999,gym,Illinois
412,Boone,Sacred Peace Theory,"317 Market Street, Rockford",42.2692674,-89.088635,gym,Illinois
413,Boone,Maximum Performance Rockford,"104 South Madison Street, Rockford",42.268608,-89.0900497,gym,Illinois
414,Boone,Namaste Studios,"223 East State Street, Rockford",42.2687998,-89.09032619999999,gym,Illinois
415,Boone,Midtown Fitness,"323 7th Street, Rockford",42.2640189,-89.0811318,gym,Illinois
416,Boone,Elisha Louis,"811-899 Haskell Avenue, Rockford",42.280278,-89.09218229999999,gym,Illinois
417,Boone,Club Guerrero's,"102 15th Avenue, Rockford",42.2511358,-89.10165789999999,gym,Illinois
418,Boone,Santosha Yoga Studio,"2211 East State Street, Rockford",42.2668352,-89.0598481,gym,Illinois
419,Boone,The Calm Company Yoga,"1404 North Main Street #3, Rockford",42.287371,-89.0810154,gym,Illinois
420,Boone,FITNESS BY MIRIAM,"3701 East State Street suite H, Rockford",42.2657125,-89.03960839999999,gym,Illinois
421,Boone,Heart Hospital at SwedishAmerican,"1401 East State Street, Rockford",42.2646236,-89.0735084,healthcare,Illinois
422,Boone,SwedishAmerican Hospital,"1401 East State Street, Rockford",42.2654181,-89.0749517,healthcare,Illinois
423,Boone,OSF Saint Anthony Medical Center,"5666 East State Street, Rockford",42.2694783,-89.0076483,healthcare,Illinois
424,Boone,Van Matre Encompass Health Rehabilitation Institute,"950 South Mulford Road, Rockford",42.2585304,-88.9968671,healthcare,Illinois
425,Boone,OSF Medical Group - Diabetes & Endocrinology,"5668 East State Street #2000, Rockford",42.2665555,-89.0066095,healthcare,Illinois
426,Boone,OSF Medical Group - Primary Care,"621 Roxbury Road, Rockford",42.2713432,-89.0101547,healthcare,Illinois
427,Boone,Swedish American EMS Building,"4120 Charles Street, Rockford",42.2544612,-89.03432289999999,healthcare,Illinois
428,Boone,Rockford Orthopedic,"324 Roxbury Road, Rockford",42.268028,-89.012162,healthcare,Illinois
429,Boone,Loyola Hepatology Clinic Rockford,"5666 East State Street, Rockford",42.2695614,-89.007775,healthcare,Illinois
430,Boone,DaVita Roxbury Dialysis Center,"622 Roxbury Road, Rockford",42.2718674,-89.011709,healthcare,Illinois
431,Boone,DaVita Roxbury At Home,"622 Roxbury Road, Rockford",42.2718938,-89.01165639999999,healthcare,Illinois
432,Boone,OSF Medical Group - Lung & Pulmonology,"535 Roxbury Road, Rockford",42.2703475,-89.0105438,healthcare,Illinois
433,Boone,OSF Medical Group - Obstetrics & Gynecology,"621 Roxbury Road, Rockford",42.2713513,-89.0099413,healthcare,Illinois
434,Boone,OSF Healing Pathways,"5666 East State Street, Rockford",42.2695614,-89.007775,healthcare,Illinois
435,Boone,OSF Medical Group - Orthopedic Surgery,"5668 East State Street #400, Rockford",42.2665555,-89.0066095,healthcare,Illinois
436,Boone,Rockford VA Clinic,"816 Featherstone Road, Rockford",42.2784881,-88.998572,healthcare,Illinois
437,Boone,Mile Square Health Center - L.P. Johnson Rockford,"1221 East State Street, Rockford",42.2666535,-89.0767272,healthcare,Illinois
438,Boone,OSF Medical Group - Surgery,"5668 East State Street # 1000, Rockford",42.2665555,-89.0066095,healthcare,Illinois
439,Boone,OSF Medical Group - Infectious Disease,"698 Featherstone Road, Rockford",42.2767829,-88.9969419,healthcare,Illinois
440,Boone,OSF Medical Group - Primary Care,"698 Featherstone Road #250, Rockford",42.2767829,-88.9969419,healthcare,Illinois
441,Brown,Cahokia Mounds State Historic Site,"Collinsville, IL, United States",38.6550643,-90.0618228,tourist,Illinois
442,Brown,Silver Springs State Fish and Wildlife Area,"13608 Fox Rd, Yorkville, IL 60560, United States",41.6275567,-88.51855239999999,tourist,Illinois
443,Brown,Starved Rock State Park,"2678 E 875th Rd, Oglesby, IL 61348, United States",41.3192311,-89.00598190000001,tourist,Illinois
444,Brown,Shawnee National Forest,"Herod, IL 62946, United States",37.5625354,-89.389057,tourist,Illinois
445,Brown,Henrys Rabbit Ranch,"1107 Historic Old Rte 66, Staunton, IL 62088, United States",39.0043325,-89.7818839,tourist,Illinois
446,Brown,Matthiessen State Park,"2500 IL-178, Oglesby, IL 61348, United States",41.2959796,-89.0244476,tourist,Illinois
447,Brown,Charley Brown Park,"Flora, IL 62839, United States",38.6635471,-88.5384045,tourist,Illinois
448,Brown,Giant City State Park,"235 Giant City Rd, Makanda, IL 62958, United States",37.6060822,-89.18592900000002,tourist,Illinois
449,Brown,Castle Rock State Park,"1365 W Castle Rd, Oregon, IL 61061, United States",41.9776754,-89.3637455,tourist,Illinois
450,Brown,George Rogers Clark National Historical Park,"401 S 2nd St, Vincennes, IN 47591, United States",38.6791265,-87.5354521,tourist,Illinois
451,Brown,National Great Rivers Museum,"1 Locks and Dam Way, Alton, IL 62002, United States",38.8709421,-90.1513731,tourist,Illinois
452,Brown,Brookfield Zoo,"8400 W 31st St, Brookfield, IL 60513, United States",41.8326922,-87.8367964,tourist,Illinois
453,Brown,Busse Woods,"Rolling Meadows, IL 60008, United States",42.0381222,-88.0052947,tourist,Illinois
454,Brown,Fullersburg Woods Nature Education Center,"3609 Spring Rd, Oak Brook, IL 60523, United States",41.8266545,-87.932228,tourist,Illinois
455,Brown,Lincoln Home National Historic Site,"413 S 8th St, Springfield, IL 62701, United States",39.7971412,-89.6451179,tourist,Illinois
456,Brown,Rock Springs Park,"1428 E 3rd St, O'Fallon, IL 62269, United States",38.5888383,-89.88567549999999,tourist,Illinois
457,Brown,Grosse Point Lighthouse,"2601 Sheridan Rd, Evanston, IL 60201, United States",42.0638876,-87.6762674,tourist,Illinois
458,Brown,Jon J. Duerr Forest Preserve,"35W003 State Rte 31, South Elgin, IL 60177, United States",41.9724232,-88.2981557,tourist,Illinois
459,Brown,The Morton Arboretum,"4100 IL-53, Lisle, IL 60532, United States",41.8150081,-88.0658315,tourist,Illinois
460,Brown,Two Story Outhouse,"1022 S Pine St, Gays, IL 61928, United States",39.458877,-88.4955995,tourist,Illinois
461,Brown,Los Rancheros,"408 Quincy Rd, Mt Sterling, IL 62353, United States",39.9873429,-90.7721716,restaurant,Illinois
462,Brown,The Truro,"102 E Gale St, Williamsfield, IL 61489, United States",40.9232703,-90.0187754,restaurant,Illinois
463,Brown,Rip's Tavern,"311 N Main St, Ladd, IL 61329, United States",41.3839048,-89.2190078,restaurant,Illinois
464,Brown,Burton's Cafe,"13427 Ewing Rd, Whittington, IL 62897, United States",38.089412,-88.9072224,restaurant,Illinois
465,Brown,Huddle House,"994 Ann Rutledge Dr, Williamsville, IL 62693, United States",39.9610576,-89.56072929999999,restaurant,Illinois
466,Brown,Yoder's Kitchen,"1195 E Columbia St, Arthur, IL 61911, United States",39.7097969,-88.4586029,restaurant,Illinois
467,Brown,Warrensburg Cafe,"515 E Main St, Warrensburg, IL 62573, United States",39.9306642,-89.0558934,restaurant,Illinois
468,Brown,The Gin Mill- Decatur,"124 E Prairie Ave, Decatur, IL 62523, United States",39.8426477,-88.9552808,restaurant,Illinois
469,Brown,Public House 29,"312 Sattley St, Rochester, IL 62563, United States",39.7472748,-89.5343164,restaurant,Illinois
470,Brown,Diamonds Family Restaurant,"2959 N Oakland Ave, Decatur, IL 62526, United States",39.875494,-88.9733579,restaurant,Illinois
471,Brown,White House Tavern,"329 W Broadway St, Du Bois, IL 62831, United States",38.2241013,-89.21396200000001,restaurant,Illinois
472,Brown,Paisano's On Broadway Italian Steakhouse,"5614 Broadway Rd, Richmond, IL 60071, United States",42.476028,-88.30666049999999,restaurant,Illinois
473,Brown,Brews,"113 W Main St, Mt Sterling, IL 62353, United States",39.9858357,-90.7653656,restaurant,Illinois
474,Brown,Garden of Paradise,"1412 E Empire St, Bloomington, IL 61701, United States",40.4887502,-88.95895039999999,restaurant,Illinois
475,Brown,The Junction Eating Place,"816 W Lincoln Hwy, DeKalb, IL 60115, United States",41.930832,-88.768681,restaurant,Illinois
476,Brown,Crandall's Restaurant,"10441 IL-47, Hebron, IL 60034, United States",42.4773811,-88.43859669999999,restaurant,Illinois
477,Brown,Brown's Chicken,"1910 st. RT 38, Lincoln Hwy, St. Charles, IL 60174, United States",41.89973680000001,-88.333979,restaurant,Illinois
478,Brown,The Corn Crib of Newman,"107 E Yates St, Newman, IL 61942, United States",39.7979614,-87.9838702,restaurant,Illinois
479,Brown,Brown's Chicken,"3150 Belvidere Rd, Waukegan, IL 60085, United States",42.3493028,-87.8801556,restaurant,Illinois
480,Brown,Beach House,"2301 E. Lake Shore Dr, 1001 S Lake Front Rd, Decatur, IL 62521, United States",39.8319128,-88.92308849999999,restaurant,Illinois
481,Brown,Marshall Browning Hospital,"900 N Washington St, Du Quoin, IL 62832, United States",38.0251452,,heathcare,Illinois
482,Brown,St Joseph Memorial Hospital,"2 Hospital Dr, Murphysboro, IL 62966, United States",37.7740776,,heathcare,Illinois
483,Brown,Northwestern Medicine Delnor Hospital,"300 S Randall Rd, Geneva, IL 60134, United States",41.88657,,heathcare,Illinois
484,Brown,Herrin Hospital,"201 S 14th St, Herrin, IL 62948, United States",37.8009749,,heathcare,Illinois
485,Brown,Advocate Sherman Hospital,"1425 N Randall Rd, Elgin, IL 60123, United States",42.0700246,,heathcare,Illinois
486,Brown,Culbertson Memorial Hospital,"238 S Congress St, Rushville, IL 62681, United States",40.1181647,,heathcare,Illinois
487,Brown,KSB Hospital,"403 E 1st St, Dixon, IL 61021, United States",41.8445927,,heathcare,Illinois
488,Brown,Ferrell Hospital,"1201 Pine St, Eldorado, IL 62930, United States",37.8155837,,heathcare,Illinois
489,Brown,Northwestern Medicine Central DuPage Hospital,"25 Winfield Rd, Winfield, IL 60190, United States",41.8730779,,heathcare,Illinois
490,Brown,Mason District Hospital,"615 N Promenade St, Havana, IL 62644, United States",40.3052325,,heathcare,Illinois
491,Brown,Franklin Hospital,"201 Bailey Ln, Benton, IL 62812, United States",38.0099195,,heathcare,Illinois
492,Brown,Hammond-Henry Hospital,"600 N College Ave, Geneseo, IL 61254, United States",41.4600653,,heathcare,Illinois
493,Brown,University of Illinois Hospital,"1740 W Taylor St, Chicago, IL 60612, United States",41.8694785,,heathcare,Illinois
494,Brown,Hamilton Memorial Hospital District,"611 S Marshall Ave, McLeansboro, IL 62859, United States",38.0867631,,heathcare,Illinois
495,Brown,Dr.Brown Office,"1702 S Mattis Ave, Champaign, IL 61821, United States",40.0963077,,heathcare,Illinois
496,Brown,Northwestern Medicine McHenry Hospital,"4201 Medical Centre Dr, McHenry, IL 60050, United States",42.3182121,,heathcare,Illinois
497,Brown,"John H. Stroger, Jr. Hospital of Cook County","1969 W Ogden Ave, Chicago, IL 60612, United States",41.8727197,,heathcare,Illinois
498,Brown,St. Bernard Hospital,"326 W 64th St, Chicago, IL 60621, United States",41.7785287,,heathcare,Illinois
499,Brown,Hillsboro Area Hospital,"1200 E Tremont St, Hillsboro, IL 62049, United States",39.1516879,,heathcare,Illinois
500,Brown,University of Illinois Hospital,"4636 S Bishop St, Chicago, IL 60609, United States",41.8095763,,heathcare,Illinois
501,Brown,Little Caesars Pizza,"1406 West 47th Street, Chicago",41.8090402,-87.6602261,restaurant,Illinois
502,Brown,Subway,"4606 South Damen Avenue, Chicago",41.8101018,-87.67765899999999,restaurant,Illinois
503,Brown,Subway,"4316 South Ashland Avenue Space #4, Chicago",41.81531520000001,-87.6656075,restaurant,Illinois
504,Brown,Pizza Hut,"2042 West 47th Street, Chicago",41.80881000000001,-87.676289,restaurant,Illinois
505,Brown,Naples Pizza,"4527 South Ashland Avenue, Chicago",41.8114138,-87.6646343,restaurant,Illinois
506,Brown,Positanos Pizza,"4844 South Ashland Avenue, Chicago",41.8055065,-87.66508689999999,restaurant,Illinois
507,Brown,Kiki D's,"4117 South Ashland Avenue, Chicago",41.8188755,-87.6647924,restaurant,Illinois
508,Brown,Tacos Don Cuco,"1847 West 47th Street, Chicago",41.8083801,-87.6716886,restaurant,Illinois
509,Brown,La Barca Restaurant,"1221 West 47th Street, Chicago",41.80849130000001,-87.65606919999999,restaurant,Illinois
510,Brown,R U Hungry?,"1724 West 51st Street, Chicago",41.80144070000001,-87.6682696,restaurant,Illinois
511,Brown,Birriería y Taquería El Arandas,"2025 West 47th Street, Chicago",41.808251,-87.675721,restaurant,Illinois
512,Brown,Dunkin',"825 West 47th Street, Chicago",41.80863069999999,-87.6466957,restaurant,Illinois
513,Brown,See Thru Chinese Kitchen,"4318 South Ashland Avenue, Chicago",41.8152778,-87.6655556,restaurant,Illinois
514,Brown,Garfield Gyros,"2020 West Garfield Boulevard, Chicago",41.79405579999999,-87.67538929999999,restaurant,Illinois
515,Brown,Kelly's Tavern,"4403 South Wallace Street, Chicago",41.8142657,-87.64058539999999,restaurant,Illinois
516,Brown,Guapo Taco Tacos De Canasta,"2430 West 47th Street, Chicago",41.8085387,-87.6857217,restaurant,Illinois
517,Brown,Church's Texas Chicken,"1808 West 47th Street, Chicago",41.8088462,-87.6702576,restaurant,Illinois
518,Brown,Pizza Nova Express,"558 West 43rd Street #2717, Chicago",41.81648679999999,-87.6406861,restaurant,Illinois
519,Brown,Atotonilco Taqueria,"1649 West 47th Street, Chicago",41.8084656,-87.6669249,restaurant,Illinois
520,Brown,Happy's Fish and Chicken,"1951 West Garfield Boulevard, Chicago",41.7932187,-87.6738264,restaurant,Illinois
521,Brown,Fitness Center,Chicago,41.79842590000001,-87.65738089999999,gym,Illinois
522,Brown,Planet Fitness,"4646 South Damen Avenue, Chicago",41.8088685,-87.6779016,gym,Illinois
523,Brown,Yung Maun,"2550 West 57th Street, Chicago",41.790464,-87.68101469999999,gym,Illinois
524,Brown,The Step Box Boutique-(Formerly D3 Boot Camp),"4636 South Bishop Street, Chicago",41.8094634,-87.6617735,gym,Illinois
525,Brown,Diet and Fitness,"2719 West 55th Street, Chicago",41.7935464,-87.6921943,gym,Illinois
526,Brown,Fonseca Nutrition Gage Park,"2637 West 51st Street, Chicago",41.80086590000001,-87.6906375,gym,Illinois
527,Brown,ProLight,"5358 South California Avenue, Chicago",41.7956434,-87.694137,gym,Illinois
528,Brown,Ray Fitness,"2816 West 55th Street, Chicago",41.7938385,-87.6945981,gym,Illinois
529,Brown,Blessed By Jess Fitness,"4716 South Ashland Avenue Floor 1, Chicago",41.8080057,-87.66529539999999,gym,Illinois
530,Brown,ProTrNALETE,"5359 South Francisco Avenue, Chicago",41.79564550000001,-87.6960129,gym,Illinois
531,Brown,IMAN Health Center,"2744 West 63rd Street, Chicago",41.7793251,-87.6927932,healthcare,Illinois
532,Brown,Maribis,"4570 South Archer Avenue, Chicago",41.81028380000001,-87.7110622,healthcare,Illinois
533,Brown,DaVita Brighton Park Dialysis,"4737 South California Avenue, Chicago",41.80736659999999,-87.69399639999999,healthcare,Illinois
534,Brown,New City Health Center Wic,"5500 South Damen Avenue, Chicago",41.7934019,-87.67441939999999,healthcare,Illinois
535,Bureau,Red Covered Bridge,"Princeton, IL 61356, United States",41.4164249,-89.4784262,tourist,Illinois
536,Bureau,Soldiers and Sailors Park,"14 Park Ave E, Princeton, IL 61356, United States",41.3681725,-89.46461670000001,tourist,Illinois
537,Bureau,Matthiessen State Park Fort,"Oglesby, IL 61348, United States",41.2963773,-89.0262693,tourist,Illinois
538,Bureau,Starved Rock State Park,"2678 E 875th Rd, Oglesby, IL 61348, United States",41.3192311,-89.00598190000001,tourist,Illinois
539,Bureau,Owen Lovejoy House,"Rural Route 3, E Peru St, Princeton, IL 61356, United States",41.3718227,-89.44871049999999,tourist,Illinois
540,Bureau,Eagle Cliff Overlook,"Oglesby, IL 61348, United States",41.3199902,-88.9857978,tourist,Illinois
541,Bureau,Captain Swift Bridge,"1600 N Epperson Rd, Princeton, IL 61356, United States",41.3789971,-89.49786139999999,tourist,Illinois
542,Bureau,Hennepin Canal Lock 17,"Princeton, IL 61356, United States",41.3433121,-89.5573842,tourist,Illinois
543,Bureau,Westclox Museum,"350 5th St, Peru, IL 61354, United States",41.32892,-89.1103143,tourist,Illinois
544,Bureau,Wild Bill Hickok State Memorial,"207 Peru St, Troy Grove, IL 61372, United States",41.4662867,-89.083811,tourist,Illinois
545,Bureau,John Deere Historic Site,"8334 S Clinton St, Dixon, IL 61021, United States",41.896081,-89.41523079999999,tourist,Illinois
546,Bureau,Cars Movie Theme Display,"307 W Washington St, Princeton, IL 61356, United States",41.4358982,-89.39934420000002,tourist,Illinois
547,Bureau,I&M Canal Boat,"A St &, Illinois and Michigan Canal Trail, La Salle, IL 61301, United States",41.326391,-89.09413169999999,tourist,Illinois
548,Bureau,McPhedran Park,"229-, 299 Oakwood Ave, Oglesby, IL 61348, United States",41.3004564,-89.07386679999999,tourist,Illinois
549,Bureau,Matthiessen Lake Waterfall,"Oglesby, IL 61348, United States",41.299069,-89.02498609999999,tourist,Illinois
550,Bureau,Canal Lock Number 14,"Canal Rd &, IL-351, La Salle, IL 61301, United States",41.3264122,-89.0946426,tourist,Illinois
551,Bureau,Ruth Edwards Nature Center in Lowell Park,"2114 Lowell Park Rd, Dixon, IL 61021, United States",41.89052909999999,-89.49513549999999,tourist,Illinois
552,Bureau,Dillon Home Museum,"1005 E 3rd St, Sterling, IL 61081, United States",41.79135429999999,-89.6808954,tourist,Illinois
553,Bureau,Lover's Leap Overlook,"Oglesby, IL 61348, United States",41.320517,-88.9879677,tourist,Illinois
554,Bureau,Navy Pier,"600 E Grand Ave, Chicago, IL 60611, United States",41.8918633,-87.6050944,tourist,Illinois
555,Bureau,Skoonerz Grill & Bar,"912 N Main St, Princeton, IL 61356, United States",41.3835676,-89.4652648,restaurant,Illinois
556,Bureau,Ye Olde Underground Inn,"219 S 6th St, Princeton, IL 61356, United States",41.3721815,-89.45017229999999,restaurant,Illinois
557,Bureau,Los Ranchitos Mexican Restaurant,"1204 W Peru St, Princeton, IL 61356, United States",41.37122069999999,-89.480176,restaurant,Illinois
558,Bureau,Prime Quarter Steak House,"250 Backbone Rd E, Princeton, IL 61356, United States",41.3928909,-89.4632111,restaurant,Illinois
559,Bureau,Konz Restaurant & Lounge,"112 S Main St, Walnut, IL 61376, United States",41.5574225,-89.593531,restaurant,Illinois
560,Bureau,Coffee Cup Family Restaurant,"628 W Railroad Ave, Princeton, IL 61356, United States",41.385989,-89.465813,restaurant,Illinois
561,Bureau,Big Apple Family Restaurant,"2136 N Main St, Princeton, IL 61356, United States",41.396027,-89.4686216,restaurant,Illinois
562,Bureau,Hawg House Saloon,"18066 US-6, Princeton, IL 61356, United States",41.3636779,-89.50931539999999,restaurant,Illinois
563,Bureau,Niel & Shorty's BBQ Company,"646 S Main St, Princeton, IL 61356, United States",41.3686111,-89.4652778,restaurant,Illinois
564,Bureau,Golden Rice Authentic Thai,"700 N Main St, Princeton, IL 61356, United States",41.3817798,-89.4653737,restaurant,Illinois
565,Bureau,Alexander Park Tavern,"815 Park Ave W, Princeton, IL 61356, United States",41.3681846,-89.47580529999999,restaurant,Illinois
566,Bureau,Culver's,"224 Ace Rd, Princeton, IL 61356, United States",41.3948982,-89.4643624,restaurant,Illinois
567,Bureau,Cafe Grace,"1009 N Main St, Princeton, IL 61356, United States",41.3846541,-89.46480129999999,restaurant,Illinois
568,Bureau,Downtown Pub & Grill,"432 S Main St, Princeton, IL 61356, United States",41.3710211,-89.4653331,restaurant,Illinois
569,Bureau,Paisano’s Ristorante,"1007 N Main St, Princeton, IL 61356, United States",41.3845083,-89.46492889999999,restaurant,Illinois
570,Bureau,Country House Restaurant,"10 3rd St, La Salle, IL 61301, United States",41.32926550000001,-89.1056306,restaurant,Illinois
571,Bureau,Pizza cellar,"1227 N Main St, Princeton, IL 61356, United States",41.3716534,-89.465226,restaurant,Illinois
572,Bureau,Bum's Bar & Grill,"790 N 6th St, Carbon Hill, IL 60416, United States",41.2968482,-88.3030745,restaurant,Illinois
573,Bureau,Walnut Cafe,"122 Main St, Walnut, IL 61376, United States",41.5572706,-89.5937872,restaurant,Illinois
574,Bureau,Chestnut Family Restaurant,"1402 Chestnut St, Henry, IL 61537, United States",41.108437,-89.3700849,restaurant,Illinois
575,Bureau,Illinois Rural Community Care Organization,"245 Backbone Rd E, Princeton, IL 61356, United States",41.3941232,,heathcare,Illinois
576,Bureau,OSF Saint Clare Medical Center,"530 Park Ave E, Princeton, IL 61356, United States",41.3668082,,heathcare,Illinois
577,Bureau,Illinois Valley Community Hospital: Hobbs Tommy MD,"925 West St, Peru, IL 61354, United States",41.3288192,,heathcare,Illinois
578,Bureau,St. Margaret's Health - Spring Valley,"600 E 1st St, Spring Valley, IL 61362, United States",41.32858969999999,,heathcare,Illinois
579,Bureau,KSB Hospital,"403 E 1st St, Dixon, IL 61021, United States",41.8445927,,heathcare,Illinois
580,Bureau,OSF Saint Luke Medical Center,"1051 W South St, Kewanee, IL 61443, United States",41.2208487,,heathcare,Illinois
581,Bureau,OSF Saint Elizabeth Medical Center,"1100 E Norris Dr, Ottawa, IL 61350, United States",41.3573373,,heathcare,Illinois
582,Bureau,Northwestern Medicine KishHealth Physician Group,"1209 Starfire Dr # 2, Ottawa, IL 61350, United States",41.35629890000001,,heathcare,Illinois
583,Bureau,OSF Saint Paul Medical Center,"1401 E 12th St, Mendota, IL 61342, United States",41.553415,,heathcare,Illinois
584,Bureau,Morrison Community Hospital,"303 N Jackson St, Morrison, IL 61270, United States",41.8091278,,heathcare,Illinois
585,Bureau,St Margarets Hospital,"Ottawa, IL 61350, United States",41.3455892,,heathcare,Illinois
586,Bureau,Elmhurst Hospital - Main Campus,"155 E Brush Hill Rd, Elmhurst, IL 60126, United States",41.8640197,,heathcare,Illinois
587,Bureau,Liberty Medical Center,"827 E Norris Dr, Ottawa, IL 61350, United States",41.35608130000001,,heathcare,Illinois
588,Bureau,Iroquois Memorial Hospital,"200 E Fairman Ave, Watseka, IL 60970, United States",40.7661417,,heathcare,Illinois
589,Bureau,KSB,"1680 S Galena Ave, Dixon, IL 61021, United States",41.8266626,,heathcare,Illinois
590,Bureau,Northwestern Medicine Valley West Hospital,"1302 N Main St, Sandwich, IL 60548, United States",41.6577504,,heathcare,Illinois
591,Bureau,Lincoln Memorial Hospital,"200 Stahlhut Dr, Lincoln, IL 62656, United States",40.1536794,,heathcare,Illinois
592,Bureau,Franklin Hospital,"201 Bailey Ln, Benton, IL 62812, United States",38.0099195,,heathcare,Illinois
593,Bureau,SIH hospital,"117 E Clark St, Harrisburg, IL 62946, United States",37.7298937,,heathcare,Illinois
594,Bureau,Edward Hospital - Main Campus,"801 S Washington St, Naperville, IL 60540, United States",41.760829,,heathcare,Illinois
595,Bureau,Naperville - Lou Malnati's Pizzeria,"131 West Jefferson Avenue, Naperville",41.7731813,-88.15084089999999,restaurant,Illinois
596,Bureau,Bowlero Naperville,"1515 Aurora Avenue, Naperville",41.76577,-88.18361999999999,restaurant,Illinois
597,Bureau,Mesón Sabika,"1025 Aurora Avenue, Naperville",41.7686619,-88.1647378,restaurant,Illinois
598,Bureau,Rosebud Italian Specialties & Pizzeria,"22 East Chicago Avenue, Naperville",41.7711979,-88.14783609999999,restaurant,Illinois
599,Bureau,Hugo's Frog Bar & Fish House,"55 South Main Street, Naperville",41.77438,-88.14963019999999,restaurant,Illinois
600,Bureau,Sullivan's Steakhouse,"244 South Main Street, Naperville",41.7716929,-88.14916090000001,restaurant,Illinois
601,Bureau,La Sorella di Francesca,"18 West Jefferson Avenue, Naperville",41.7727487,-88.14854369999999,restaurant,Illinois
602,Bureau,Indian Harvest,"796 Royal Saint George Drive #101, Naperville",41.7843246,-88.16372679999999,restaurant,Illinois
603,Bureau,Giordano's,"119 South Main Street, Naperville",41.7733921,-88.14974579999999,restaurant,Illinois
604,Bureau,Hollywood Palms Cinema,"352 Illinois Route 59, Naperville",41.76551020000001,-88.2026296,restaurant,Illinois
605,Bureau,BD's Mongolian Grill,"221 South Washington Street, Naperville",41.77224669999999,-88.14810299999999,restaurant,Illinois
606,Bureau,Portillo's Naperville,"950 East Ogden Avenue, Naperville",41.789103,-88.1321062,restaurant,Illinois
607,Bureau,Catch 35 Naperville,"35 South Washington Street, Naperville",41.77418490000001,-88.14808529999999,restaurant,Illinois
608,Bureau,Noodles and Company,"207 South Washington Street, Naperville",41.772721,-88.1479964,restaurant,Illinois
609,Bureau,Quigley's Irish Pub,"43 East Jefferson Avenue, Naperville",41.7730688,-88.146332,restaurant,Illinois
610,Bureau,Little Caesars Pizza,"1010 North Washington Street, Naperville",41.787382,-88.1466091,restaurant,Illinois
611,Bureau,House of Emperor,"1212 South Naper Boulevard #123, Naperville",41.7513313,-88.11430360000001,restaurant,Illinois
612,Bureau,Features Bar & Grill,"14 Chicago Avenue, Naperville",41.7713484,-88.1484435,restaurant,Illinois
613,Bureau,Subway,"790 Royal Saint George Drive, Naperville",41.78307469999999,-88.16558409999999,restaurant,Illinois
614,Bureau,Five Guys,"22 East Chicago Avenue Suite 104, Naperville",41.77118,-88.14762999999999,restaurant,Illinois
615,Bureau,Planet Fitness,"1163 East Ogden Avenue, Naperville",41.79517,-88.1278,gym,Illinois
616,Bureau,Life Time,"28141 Diehl Road, Warrenville",41.8002481,-88.1674809,gym,Illinois
617,Bureau,Universal Spirit Yoga,"Virtual Yoga and Ayurveda classes, workshops, trainings, Naperville",41.78017189999999,-88.1548129,gym,Illinois
618,Bureau,LA Fitness,"1836 Freedom Drive, Naperville",41.8038004,-88.1241982,gym,Illinois
619,Bureau,Anytime Fitness,"1271 Rickert Drive, Naperville",41.7484334,-88.1701265,gym,Illinois
620,Bureau,Orangetheory Fitness,"24 West Gartner Road Ste. 112, Naperville",41.75505899999999,-88.140519,gym,Illinois
621,Bureau,Hammer Wrestling School,"899 North Mill Street, Naperville",41.78513,-88.1576546,gym,Illinois
622,Bureau,ILLINOIS SHAOLIN KUNG FU ACADEMY,"633, 1163 East Ogden Avenue, Naperville",41.7965937,-88.12706299999999,gym,Illinois
623,Bureau,Pure Barre,"50 South Main Street #112, Naperville",41.7746932,-88.1493164,gym,Illinois
624,Bureau,Phil Bivens Yoga,"408 West 5th Avenue, Naperville",41.7801609,-88.1548897,gym,Illinois
625,Bureau,Phoenix Sports Empire,"inside Flex Fitness, 630 East Ogden Avenue, Naperville",41.7855022,-88.1375968,gym,Illinois
626,Bureau,Body By Raven LLC,"1112 Royal Saint George Drive, Naperville",41.7889714,-88.16536699999999,gym,Illinois
627,Bureau,Victory Martial Arts- Naperville,"1224 Ogden Avenue unit j, Naperville",41.7811038,-88.1765116,gym,Illinois
628,Bureau,Signature Fitness Club,"1531 North Aurora Road, Naperville",41.7814984,-88.18485779999999,gym,Illinois
629,Bureau,Acceleration Sports Performance at Naperville Yard,"1607 Legacy Circle, Naperville",41.7998994,-88.1298999,gym,Illinois
630,Bureau,Hot Yoga Naperville,"400 South Main Street, Naperville",41.7700822,-88.1495355,gym,Illinois
631,Bureau,Xtreme Performance And Training,"Alsip, Chicago Avenue, Naperville",41.7751748,-88.1906227,gym,Illinois
632,Bureau,Yoga Gyan Jyoti Center for Yoga & Ayurveda,"408 West 5th Avenue, Naperville",41.7801997,-88.1547856,gym,Illinois
633,Bureau,Naperville Park District - Fort Hill Activity Center,"20 Fort Hill Drive, Naperville",41.7740551,-88.19527939999999,gym,Illinois
634,Bureau,Fitness Together,"1001 East Ogden Avenue # 101, Naperville",41.7904046,-88.13236119999999,gym,Illinois
635,Bureau,Edward Hospital - Main Campus,"801 South Washington Street, Naperville",41.760829,-88.1521401,healthcare,Illinois
636,Bureau,Summit Medical Care,"640 South Washington Street, Naperville",41.76654200000001,-88.1480364,healthcare,Illinois
637,Bureau,Heart Institute For Children,"1020 East Ogden Avenue Suite 302, Naperville",41.7907111,-88.1297737,healthcare,Illinois
638,Bureau,"Forever 25 Medical Center: Dr. Nesreen Suwan, M. D.","2867 Ogden Avenue, Lisle",41.7962627,-88.1065804,healthcare,Illinois
639,Bureau,Edward-Elmhurst Health Center - Naperville,"1804 North Naper Boulevard, Naperville",41.80304719999999,-88.1194526,healthcare,Illinois
640,Bureau,University of Chicago Medicine,"1020 East Ogden Avenue, Naperville",41.790647,-88.1297809,healthcare,Illinois
641,Bureau,Fresenius Medical Care at Edward Hospital,"801 Washington Street, Naperville",41.7844109,-88.14752329999999,healthcare,Illinois
642,Bureau,Medicine With a Heart,"1804 North Naper Boulevard #470, Naperville",41.8030337,-88.11949659999999,healthcare,Illinois
643,Bureau,Naperville Medical Office Space Available - Brom Medical Center,"720 Brom Court # 205, Naperville",41.76245729999999,-88.1527636,healthcare,Illinois
644,Bureau,Edward-Elmhurst Heart Hospital,"801 South Washington Street, Naperville",41.7612541,-88.14943099999999,healthcare,Illinois
645,Bureau,Loyola Hepatology Clinic Naperville,"801 South Washington Street # 4, Naperville",41.7609496,-88.1501821,healthcare,Illinois
646,Bureau,Duly Health and Care - Cardiology,"100 Spalding Drive #400, Naperville",41.7609865,-88.1513248,healthcare,Illinois
647,Bureau,Rush-Copley Medical Center,"120 Spalding Drive, Naperville",41.76100050000001,-88.1521214,healthcare,Illinois
648,Bureau,Advocate Health Care,"100 Spalding Drive, Naperville",41.7610132,-88.1521683,healthcare,Illinois
649,Bureau,Conventions Psychiatry and Counseling,"4300 Weaver Parkway Suite 100-A, Warrenville",41.8031489,-88.16416459999999,healthcare,Illinois
650,Bureau,Genesis Men's Health,"1100 North Sherman Avenue STE 107, Naperville",41.7887569,-88.13496459999999,healthcare,Illinois
651,Bureau,Edward Hosptial,"1260 Iroquois Avenue #302, Naperville",41.7927273,-88.12392129999999,healthcare,Illinois
652,Bureau,EuHeal Medical Center,"1110 North Washington Street, Naperville",41.788317,-88.14672329999999,healthcare,Illinois
653,Bureau,Advocate Outpatient Center,"1512 North Naper Boulevard Suite 176, Naperville",41.7977384,-88.1177745,healthcare,Illinois
654,Bureau,Novo Connections,"1755 Park Street suite#200, Naperville",41.80036169999999,-88.1494767,healthcare,Illinois
655,Calhoun,World's Largest Pitchfork,"Casey, IL 62420, United States",39.31544179999999,-87.978876,tourist,Illinois
656,Calhoun,World's Largest Wind Chime,"109 E Main St, Casey, IL 62420, United States",39.2996469,-87.9910487,tourist,Illinois
657,Calhoun,Big Pencil,"19 W Main St, Casey, IL 62420, United States",39.299285,-87.99313629999999,tourist,Illinois
658,Calhoun,The Big Yardstick,"103 N Central Ave, Casey, IL 62420, United States",39.29943979999999,-87.9920904,tourist,Illinois
659,Calhoun,World's Largest Rocking Chair,"110 E Main St, Casey, IL 62420, United States",39.3000175,-87.9912207,tourist,Illinois
660,Calhoun,Hippie Memorial,"N Oak St, Arcola, IL 61910, United States",39.685459,-88.3081765,tourist,Illinois
661,Calhoun,"Casey, IL","Casey, IL 62420, United States",39.29921969999999,-87.99247869999999,tourist,Illinois
662,Calhoun,Sam Parr State Park,"13225 IL-33, Newton, IL 62448, United States",39.0216546,-88.12221799999999,tourist,Illinois
663,Calhoun,Big Rocking Horse,"905 IL-49, Casey, IL 62420, United States",39.2991819,-87.9923503,tourist,Illinois
664,Calhoun,The McCully Heritage Project,"Crawford Creek Rd, Kampsville, IL 62053, United States",39.2824373,-90.62167149999999,tourist,Illinois
665,Calhoun,World's Largest Teeter Toter,"Casey, IL 62420, United States",39.29982469999999,-87.9907364,tourist,Illinois
666,Calhoun,World's Largest Mailbox,"19 W Main St, Casey, IL 62420, United States",39.2988603,-87.99360709999999,tourist,Illinois
667,Calhoun,Hamilton County State Fish & Wildlife Area,"McLeansboro, IL, United States",38.0655127,-88.40252319999999,tourist,Illinois
668,Calhoun,Jasper County Museum,"100 S Van Buren St, Newton, IL 62448, United States",38.9908464,-88.16110909999999,tourist,Illinois
669,Calhoun,Largest Bird Cage,"Casey, IL 62420, United States",39.2991169,-87.99390249999999,tourist,Illinois
670,Calhoun,Navy Pier,"600 E Grand Ave, Chicago, IL 60611, United States",41.8918633,-87.6050944,tourist,Illinois
671,Calhoun,Kaskaskia Dragon,"2401-2599 Progress W Dr, Vandalia, IL 62471, United States",38.9744534,-89.1198206,tourist,Illinois
672,Calhoun,Newton Lake Conservation Area,"3490 E 500th Ave, Newton, IL 62448, United States",38.92227949999999,-88.3055408,tourist,Illinois
673,Calhoun,Beall Woods State Park,"9285 Beall Woods Fire Ln, Mt Carmel, IL 62863, United States",38.3478709,-87.8358306,tourist,Illinois
674,Calhoun,Ballard Nature Center,"5253 US-40, Altamont, IL 62411, United States",39.0625551,-88.7048813,tourist,Illinois
675,Calhoun,The Tin Cup,"139 W North Ave, Noble, IL 62868, United States",38.6971985,-88.2250189,restaurant,Illinois
676,Calhoun,Ginger Ale's Olney,"1210 East Main Street, 612 N West St, Olney, IL 62450, United States",38.7406144,-88.0939655,restaurant,Illinois
677,Calhoun,HV's Food & Spirits,"317 S West St, Olney, IL 62450, United States",38.7279343,-88.0943885,restaurant,Illinois
678,Calhoun,Mis tres potrillos Mexican restaurant Bar & Grill,"5191 075 N, Parkersburg, IL 62452, United States",38.5804961,-88.0575205,restaurant,Illinois
679,Calhoun,Hovey's Diner,"412 E Main St, Olney, IL 62450, United States",38.73135329999999,-88.0820801,restaurant,Illinois
680,Calhoun,Mandy's Family Restaurant,"117 N Main St, Grayville, IL 62844, United States",38.2584112,-87.9934557,restaurant,Illinois
681,Calhoun,China Capital Super Buffet,"525 N West St, Olney, IL 62450, United States",38.7399245,-88.0962022,restaurant,Illinois
682,Calhoun,El Cactus Mexican Grill,"200 W Main St, Olney, IL 62450, United States",38.7313946,-88.0862178,restaurant,Illinois
683,Calhoun,Mis Tres Potrillos Olney,"211 S West St, Olney, IL 62450, United States",38.7293249,-88.0943885,restaurant,Illinois
684,Calhoun,Hog N Dog BBQ,"320 S West St, Olney, IL 62450, United States",38.7278457,-88.09378579999999,restaurant,Illinois
685,Calhoun,Joe's,"214 N Jefferson St, Olney, IL 62450, United States",38.7332404,-88.0731734,restaurant,Illinois
686,Calhoun,Pizza Fast,"307 S Whittle Ave, Olney, IL 62450, United States",38.729451,-88.0850203,restaurant,Illinois
687,Calhoun,NEW Yamato Steak House of Japan,"1003 N West St, Olney, IL 62450, United States",38.7497878,-88.0952325,restaurant,Illinois
688,Calhoun,China Wok Buffet,"223 E Main St, Olney, IL 62450, United States",38.7309899,-88.0840765,restaurant,Illinois
689,Calhoun,Arby's,"1503 S West St, Olney, IL 62450, United States",38.7120365,-88.0921841,restaurant,Illinois
690,Calhoun,Burger King,"401 S West St, Olney, IL 62450, United States",38.727239,-88.0946591,restaurant,Illinois
691,Calhoun,Bobe's Pizza,"1610 E Main St, Olney, IL 62450, United States",38.7319357,-88.0689665,restaurant,Illinois
692,Calhoun,Subway,"229 W Main St, Albion, IL 62806, United States",38.3767336,-88.0627624,restaurant,Illinois
693,Calhoun,Ophelia's Cup,"205 S Whittle Ave, Olney, IL 62450, United States",38.7302284,-88.0850219,restaurant,Illinois
694,Calhoun,Taco Bell,"908 E Main St, Olney, IL 62450, United States",38.7316673,-88.0767846,restaurant,Illinois
695,Calhoun,Carle Richland Memorial Hospital,"800 E Locust St, Olney, IL 62450, United States",38.736594,,heathcare,Illinois
696,Calhoun,Wabash General Hospital,"1418 College Dr, Mt Carmel, IL 62863, United States",38.4206357,,heathcare,Illinois
697,Calhoun,Lawrence County Memorial Hospital,"2200 State St, Lawrenceville, IL 62439, United States",38.7287753,,heathcare,Illinois
698,Calhoun,Crossroads Community Hospital,"8 Doctors Park Rd, Mt Vernon, IL 62864, United States",38.3122136,,heathcare,Illinois
699,Calhoun,Fairfield Memorial Hospital,"303 NW 11th St, Fairfield, IL 62837, United States",38.3812333,,heathcare,Illinois
700,Calhoun,Crawford Memorial Hospital,"1000 N Allen St, Robinson, IL 62454, United States",39.01454,,heathcare,Illinois
701,Calhoun,Marshall Browning Hospital,"900 N Washington St, Du Quoin, IL 62832, United States",38.0251452,,heathcare,Illinois
702,Calhoun,Red Bud Regional Hospital,"325 Spring St, Red Bud, IL 62278, United States",38.2090429,,heathcare,Illinois
703,Calhoun,Herrin Hospital,"201 S 14th St, Herrin, IL 62948, United States",37.8009749,,heathcare,Illinois
704,Calhoun,St Joseph Memorial Hospital,"2 Hospital Dr, Murphysboro, IL 62966, United States",37.7740776,,heathcare,Illinois
705,Calhoun,Clay County Hospital,"911 Stacey Burk Dr, Flora, IL 62839, United States",38.6808547,,heathcare,Illinois
706,Calhoun,Burger King,"1452 North State Road, Flora",38.6808679,-88.48878979999999,restaurant,Illinois
707,Calhoun,Hucks,"232 West North Avenue, Flora",38.66867680000001,-88.4887388,restaurant,Illinois
708,Calhoun,Flora Bar & Grill,"800 North Olive Road, Flora",38.6768238,-88.479385,restaurant,Illinois
709,Calhoun,Taco Bell,"1442 North Worthey Street, Flora",38.6808729,-88.49730439999999,restaurant,Illinois
710,Calhoun,Grandma's Kitchen,"525 East North Avenue, Flora",38.6708215,-88.4795402,restaurant,Illinois
711,Calhoun,Julians Drive In,"8190 Old Highway 50, Flora",38.6662425,-88.50765849999999,restaurant,Illinois
712,Calhoun,Los Tres Caminos,"212 East North Avenue, Flora",38.6692452,-88.48396269999999,restaurant,Illinois
713,Calhoun,Anthony's Wild West Pizza,"107 East North Avenue, Flora",38.6691474,-88.48567880000002,restaurant,Illinois
714,Calhoun,La Fuente Mexican Restaurant,"1050 East North Avenue, Flora",38.67271379999999,-88.47055069999999,restaurant,Illinois
715,Calhoun,The Curly Tail,"815 East North Avenue, Flora",38.67210239999999,-88.4748218,restaurant,Illinois
716,Calhoun,Subway,"1220 North State Street, Flora",38.6789705,-88.4888661,restaurant,Illinois
717,Calhoun,McDonald's,"200 Given Drive, Flora",38.6793069,-88.49032539999999,restaurant,Illinois
718,Calhoun,China Buffet,"131 East North Avenue, Flora",38.6694305,-88.4848027,restaurant,Illinois
719,Calhoun,Tammie Jo's Meal House,"120 North Main Street, Flora",38.66947909999999,-88.485879,restaurant,Illinois
720,Calhoun,The Outpost,"107 East North Avenue, Flora",38.6691474,-88.48567880000002,restaurant,Illinois
721,Calhoun,Dimaggios Pizza,"216 West North Avenue, Flora",38.6684403,-88.4880958,restaurant,Illinois
722,Calhoun,The Gym,"112 West North Avenue, Flora",38.6688734,-88.4866833,gym,Illinois
723,Calhoun,Power & Grace,"502 West North Avenue, Flora",38.6683036,-88.49198849999999,gym,Illinois
724,Calhoun,Doc's Gym,"19 Greenlaw Avenue, Flora",38.668345,-88.5009212,gym,Illinois
725,Calhoun,Clay County Hospital,"911 Stacey Burk Drive, Flora",38.6808547,-88.4727698,healthcare,Illinois
726,Calhoun,CCH Medical Clinic,"929 Stacey Burk Dr, Flora",38.6689364,-88.4856042,healthcare,Illinois
727,Carroll,Raven's Grin Inn,"411 N Carroll St, Mt Carroll, IL 61053, United States",42.1020736,-89.97987429999999,tourist,Illinois
728,Carroll,Windmill Cultural Center,"111 10th Ave, Fulton, IL 61252, United States",41.8672517,-90.1679216,tourist,Illinois
729,Carroll,Ruth Edwards Nature Center in Lowell Park,"2114 Lowell Park Rd, Dixon, IL 61021, United States",41.89052909999999,-89.49513549999999,tourist,Illinois
730,Carroll,Marquette Park,"Savanna, IL 61074, United States",42.0992443,-90.1590081,tourist,Illinois
731,Carroll,Mississippi Palisades State Park,"16327A IL-84, Savanna, IL 61074, United States",42.1438478,-90.153801,tourist,Illinois
732,Carroll,Upper Mississippi River National Wildlife and Fish Refuge - Ingersoll Wetlands Learning Center,"6870 Riverview Rd, Thomson, IL 61285, United States",42.0319314,-90.11528369999999,tourist,Illinois
733,Carroll,John Deere Historic Site,"8334 S Clinton St, Dixon, IL 61021, United States",41.896081,-89.41523079999999,tourist,Illinois
734,Carroll,Savanna Museum and Cultural Center,"406 Main St, Savanna, IL 61074, United States",42.0945983,-90.1566357,tourist,Illinois
735,Carroll,Apple River Fort State Historic Site,"311 E Myrtle St, Elizabeth, IL 61028, United States",42.3181139,-90.2146782,tourist,Illinois
736,Carroll,Lowell Park,"2114 Lowell Park Rd, Dixon, IL 61021, United States",41.8905907,-89.48765709999999,tourist,Illinois
737,Carroll,Apple River Canyon State Park,"8763 E Canyon Rd, Apple River, IL 61001, United States",42.4468486,-90.0528942,tourist,Illinois
738,Carroll,Cat Tail Park,"20501-20919 Cattail Rd, Fulton, IL 61252, United States",41.8737646,-90.1450847,tourist,Illinois
739,Carroll,Oakdale Nature Preserve,"4433 S Cranes Grove Rd, Freeport, IL 61032, United States",42.2397053,-89.6001742,tourist,Illinois
740,Carroll,Long Hollow Canopy Tours,"3247 W Longhollow Rd, Galena, IL 61036, United States",42.3623453,-90.2813603,tourist,Illinois
741,Carroll,Old Mill Park,"9621 US-52, Savanna, IL 61074, United States",42.1022228,-90.1243471,tourist,Illinois
742,Carroll,Dillon Home Museum,"1005 E 3rd St, Sterling, IL 61081, United States",41.79135429999999,-89.6808954,tourist,Illinois
743,Carroll,Pleasure Park,"340-398 10th St, Fulton, IL 61252, United States",41.8706533,-90.1586377,tourist,Illinois
744,Carroll,Blackhawk Battlefield Park,"14109 W Blackhawk Rd, Pearl City, IL 61062, United States",42.2956436,-89.88179219999999,tourist,Illinois
745,Carroll,Navy Pier,"600 E Grand Ave, Chicago, IL 60611, United States",41.8918633,-87.6050944,tourist,Illinois
746,Carroll,Frog Pond,"9496-, 9898 IL-84, Savanna, IL 61074, United States",42.0705018,-90.12530670000001,tourist,Illinois
747,Carroll,Molly’s Kitchen and Bar,"110 W Market St, Mt Carroll, IL 61053, United States",42.1012109,-89.9790262,restaurant,Illinois
748,Carroll,Candlelight at Lake Carroll,"29-11 Ironwood Dr, Lanark, IL 61046, United States",42.1740815,-89.8573025,restaurant,Illinois
749,Carroll,Mt Carroll Cafe,"314 N Main St, Mt Carroll, IL 61053, United States",42.100837,-89.979063,restaurant,Illinois
750,Carroll,Mount Carroll Pub,"121 W Market St, Mt Carroll, IL 61053, United States",42.1015735,-89.979832,restaurant,Illinois
751,Carroll,The Copper Cow,"834 S Jackson St, Mt Carroll, IL 61053, United States",42.0885718,-89.9744557,restaurant,Illinois
752,Carroll,The Crooked Roof,"109 E Carroll St, Lanark, IL 61046, United States",42.103114,-89.8325081,restaurant,Illinois
753,Carroll,Dairy Queen Grill & Chill,"401 S Clay St, Mt Carroll, IL 61053, United States",42.0946354,-89.9779744,restaurant,Illinois
754,Carroll,Brothers Inn Family Restaurant,"103 IL-64, Lanark, IL 61046, United States",42.0958836,-89.83199549999999,restaurant,Illinois
755,Carroll,Subway,"855 S Mill St, Mt Carroll, IL 61053, United States",42.083008,-89.9875393,restaurant,Illinois
756,Carroll,Sunshine Restaurant,"502 Main St, Savanna, IL 61074, United States",42.095391,-90.1567931,restaurant,Illinois
757,Carroll,Route 40 Cafe,"14 Washington St, Milledgeville, IL 61051, United States",41.9581004,-89.7686815,restaurant,Illinois
758,Carroll,Broad Street Pizza,"119 N Broad St, Lanark, IL 61046, United States",42.1026125,-89.8325595,restaurant,Illinois
759,Carroll,Jerod's Bar & Grill,"10 W Market St, Shannon, IL 61078, United States",42.154747,-89.7399392,restaurant,Illinois
760,Carroll,Circa 1888,"305 Main St, Savanna, IL 61074, United States",42.0935527,-90.1567184,restaurant,Illinois
761,Carroll,Mt Carroll Bowling Center,"206 N Main St, Mt Carroll, IL 61053, United States",42.1000671,-89.9790191,restaurant,Illinois
762,Carroll,The Mill Wheel Tavern,"337 N Main Ave, Milledgeville, IL 61051, United States",41.9623269,-89.7747557,restaurant,Illinois
763,Carroll,Shannon Cafe,"29 E Market St, Shannon, IL 61078, United States",42.1545368,-89.7386856,restaurant,Illinois
764,Carroll,The Riverview Lodge Inc.,"5403 Riverview Rd, Thomson, IL 61285, United States",42.0091495,-90.1244856,restaurant,Illinois
765,Carroll,Savanna Marina Cafe,"1 Main St, Savanna, IL 61074, United States",42.0899367,-90.1554451,restaurant,Illinois
766,Carroll,3-Headed Monster BBQ & Catering,"118 N Stanton St, Shannon, IL 61078, United States",42.156448,-89.7362806,restaurant,Illinois
767,Carroll,FHN Memorial Hospital,"1045 W Stephenson St, Freeport, IL 61032, United States",42.2951012,,heathcare,Illinois
768,Carroll,Northwestern Medicine Central DuPage Hospital,"25 Winfield Rd, Winfield, IL 60190, United States",41.8730779,,heathcare,Illinois
769,Carroll,"John H. Stroger, Jr. Hospital of Cook County","1969 W Ogden Ave, Chicago, IL 60612, United States",41.8727197,,heathcare,Illinois
770,Carroll,Fairfield Memorial Hospital,"303 NW 11th St, Fairfield, IL 62837, United States",38.3812333,,heathcare,Illinois
771,Carroll,Franklin Hospital,"201 Bailey Ln, Benton, IL 62812, United States",38.0099195,,heathcare,Illinois
772,Carroll,Morrison Community Hospital,"303 N Jackson St, Morrison, IL 61270, United States",41.8091278,,heathcare,Illinois
773,Carroll,KSB Hospital,"403 E 1st St, Dixon, IL 61021, United States",41.8445927,,heathcare,Illinois
774,Carroll,UChicago Medicine Ingalls Memorial,"1 Ingalls Dr, Harvey, IL 60426, United States",41.60745439999999,,heathcare,Illinois
775,Carroll,Hamilton Memorial Hospital District,"611 S Marshall Ave, McLeansboro, IL 62859, United States",38.0867631,,heathcare,Illinois
776,Carroll,Advocate Lutheran General Hospital,"1775 Dempster St, Park Ridge, IL 60068, United States",42.0385609,,heathcare,Illinois
777,Carroll,Northwest Community Healthcare/Hospital,"800 W Central Rd, Arlington Heights, IL 60005, United States",42.0685668,,heathcare,Illinois
778,Carroll,Ferrell Hospital,"1201 Pine St, Eldorado, IL 62930, United States",37.8155837,,heathcare,Illinois
779,Carroll,Ascension Saint Alexius,"1555 Barrington Rd, Hoffman Estates, IL 60169, United States",42.0530103,,heathcare,Illinois
780,Carroll,Advocate Sherman Hospital,"1425 N Randall Rd, Elgin, IL 60123, United States",42.0700246,,heathcare,Illinois
781,Carroll,Midwest Medical Center,"1 Medical Center Drive, Galena, IL 61036, United States",42.4489467,,heathcare,Illinois
782,Carroll,Roseland Community Hospital,"45 W 111th St, Chicago, IL 60628, United States",41.6923179,,heathcare,Illinois
783,Carroll,Ascension Alexian Brothers,"800 Biesterfield Rd, Elk Grove Village, IL 60007, United States",42.00540520000001,,heathcare,Illinois
784,Carroll,Advocate Good Samaritan Hospital,"3815 Highland Ave, Downers Grove, IL 60515, United States",41.8190613,,heathcare,Illinois
785,Carroll,CGH Medical Center,"100 E Le Fevre Rd, Sterling, IL 61081, United States",41.802655,,heathcare,Illinois
786,Carroll,Wabash General Hospital,"1418 College Dr, Mt Carmel, IL 62863, United States",38.4206357,,heathcare,Illinois
787,Carroll,Subway,"801 North Walnut Street, Mount Carmel",38.4136995,-87.7667639,restaurant,Illinois
788,Carroll,Mt Carmel Municipal Golf Course,"700 Park Road, Mount Carmel",38.4427942,-87.7784642,restaurant,Illinois
789,Carroll,Kellyo's Pizza,"702 North Market Street, Mount Carmel",38.4136669,-87.763699,restaurant,Illinois
790,Carroll,WVC Red Café,"2200 College Drive, Mount Carmel",38.4288,-87.7782864,restaurant,Illinois
791,Carroll,Little Italy's Pizza,"502 North Walnut Street, Mount Carmel",38.40980589999999,-87.765244,restaurant,Illinois
792,Carroll,Pizza Hut,"306 West 9th Street, Mount Carmel",38.41468169999999,-87.7684075,restaurant,Illinois
793,Carroll,McDonald's,"111 East 9th Street, Mount Carmel",38.4157346,-87.7635232,restaurant,Illinois
794,Carroll,Tequila's Mexican Restaurant,"115 West 9th Street, Mount Carmel",38.4151219,-87.76536449999999,restaurant,Illinois
795,Carroll,Casey's,"418 West 9th Street, Mount Carmel",38.4141235,-87.77032919999999,restaurant,Illinois
796,Carroll,Rosati's Pizza,"411 West 9th Street, Mount Carmel",38.4136102,-87.7695475,restaurant,Illinois
797,Carroll,Burger King,"730 North Walnut Street, Mount Carmel",38.41314330000001,-87.76727960000001,restaurant,Illinois
798,Carroll,Bobe's Pizza,"620 West 9th Street, Mount Carmel",38.413096,-87.7729253,restaurant,Illinois
799,Carroll,Taco Tierra of Mt. Carmel,"729 North Market Street, Mount Carmel",38.4143056,-87.7633974,restaurant,Illinois
800,Carroll,Two Farmers,"623 North Market Street, Mount Carmel",38.4129614,-87.7626298,restaurant,Illinois
801,Carroll,Tenpins Llc,"930 West 9th Street, Mount Carmel",38.4119202,-87.7768418,restaurant,Illinois
802,Carroll,Coffee Room and Hometown BBQ,"411 North Market Street, Mount Carmel",38.409821,-87.7608305,restaurant,Illinois
803,Carroll,Big Jon's Lunch Box,"123 West 4th Street, Mount Carmel",38.409045,-87.76185819999999,restaurant,Illinois
804,Carroll,Cactus Cuisine and Ice Cream,"805 West 3rd Street, Mount Carmel",38.4040209,-87.77114449999999,restaurant,Illinois
805,Carroll,Stymie's Rest at West Berwick Golf Course,"700 Park Road, Mount Carmel",38.43729879999999,-87.77915209999999,restaurant,Illinois
806,Carroll,Curves,"803 North Walnut Street, Mount Carmel",38.41368719999999,-87.76673269999999,gym,Illinois
807,Carroll,Illinois Eastern Community Colleges - Wabash Valley College,"2200 College Drive, Mount Carmel",38.42794229999999,-87.7790661,gym,Illinois
808,Carroll,"PREMIUM FITNESS, LLC","511 West 7th Street, Mount Carmel",38.4107177,-87.7694607,gym,Illinois
809,Carroll,Mount Carmel Fitness Center,"530 North Walnut Street, Mount Carmel",38.410434,-87.7658591,gym,Illinois
810,Carroll,Wabash General Hospital,"1418 College Drive, Mount Carmel",38.42063569999999,-87.7697223,healthcare,Illinois
811,Cass,Haypress Falls & Haypress Museum,"500 E, Eldred, IL 62027, United States",39.366325,-90.525975,tourist,Illinois
812,Cass,Havana Nature Center,"416 Max D. Thompson River Road, Havana, IL 62644, United States",40.3041283,-90.0660535,tourist,Illinois
813,Cass,Cahokia Mounds State Historic Site,"Collinsville, IL, United States",38.6550643,-90.0618228,tourist,Illinois
814,Cass,Dickson Mounds State Museum,"10956 N Dickson Mounds Rd, Lewistown, IL 61542, United States",40.350632,-90.115695,tourist,Illinois
815,Cass,Lincoln's New Salem State Historic Site,"15588 History Ln, Petersburg, IL 62675, United States",39.9786614,-89.8470688,tourist,Illinois
816,Cass,Jim Edgar Panther Creek State Fish and Wildlife Area,"10149 Co Rd 11, Chandlerville, IL 62627, United States",39.9965471,-90.0692724,tourist,Illinois
817,Cass,World's Largest Pitchfork,"Casey, IL 62420, United States",39.31544179999999,-87.978876,tourist,Illinois
818,Cass,Schuy-Rush Park,"8000 Schuy Rush Park Rd, Rushville, IL 62681, United States",40.08377790000001,-90.55296659999999,tourist,Illinois
819,Cass,Starved Rock State Park,"2678 E 875th Rd, Oglesby, IL 61348, United States",41.3192311,-89.00598190000001,tourist,Illinois
820,Cass,World's Largest Rocking Chair,"110 E Main St, Casey, IL 62420, United States",39.3000175,-87.9912207,tourist,Illinois
821,Cass,The Big Yardstick,"103 N Central Ave, Casey, IL 62420, United States",39.29943979999999,-87.9920904,tourist,Illinois
