,County,Name,Address,Lat,Lng,Type,City
0,Adair,Thousand Hills State Park,"20431 MO-157, Kirksville, MO 63501, United States",40.1853792,-92.646778,tourist,Missouri
1,Adair,Adair Co Historical Society,"211 S Elson St, Kirksville, MO 63501, United States",40.193421,-92.58405429999999,tourist,Missouri
2,Adair,Thousand Hills State Park Petroglyphs,"20431 MO-157, Kirksville, MO 63501, United States",40.1885878,-92.64075679999999,tourist,Missouri
3,Adair,Walt Disney Hometown Museum,"120 E Santa Fe Ave, Marceline, MO 64658, United States",39.715866,-92.94787,tourist,Missouri
4,Adair,Lookout Point Park,"1107 N Brown St, La Plata, MO 63549, United States",40.030072,-92.4899456,tourist,Missouri
5,Adair,Brashear Park,"E Normal Ave, Kirksville, MO 63501, United States",40.1902257,-92.5682245,tourist,Missouri
6,Adair,Meramec Caverns,"1135 Hwy W, Sullivan, MO 63080, United States",38.241078,-91.091995,tourist,Missouri
7,Adair,Walt Disney Dreaming Tree and Barn,"275 W Broadway St, Marceline, MO 64658, United States",39.73138050000001,-92.9436925,tourist,Missouri
8,Adair,Museum of Osteopathic Medicine and the International Center for Osteopathic History,"800 W Jefferson St, Kirksville, MO 63501, United States",40.1932378,-92.58924230000001,tourist,Missouri
9,Adair,Union Covered Bridge State Historic Site,"20700 Monroe County Road 962, Paris, MO 65275, United States",39.4329326,-92.10208300000001,tourist,Missouri
10,Adair,Long Branch State Park,"28615 Visitor Center Rd, Macon, MO 63552, United States",39.7717017,-92.5234638,tourist,Missouri
11,Adair,Rebel's Cove Conservation Area,"Coatsville, MO 63535, United States",40.5574564,-92.70335750000001,tourist,Missouri
12,Adair,Bothwell Lodge State Historic Site,"19349 Bothwell State Park Rd, Sedalia, MO 65301, United States",38.7949042,-93.2217153,tourist,Missouri
13,Adair,West Winery at Jackson Stables,"22694 Rainbow Basin Trail, Kirksville, MO 63501, United States",40.1750581,-92.6188057,tourist,Missouri
14,Adair,The Gateway Arch,"Gateway Arch, St. Louis, MO 63102, United States",38.6251269,-90.1867504,tourist,Missouri
15,Adair,Thousand Hills State Park Cabin Rentals,"Kirksville, MO 63501, United States",40.1859149,-92.6427913,tourist,Missouri
16,Adair,Kirksville Parks & Recreation,"Rotary Park Aquatic Center, 801 E Mill St, Kirksville, MO 63501, United States",40.2024386,-92.5746436,tourist,Missouri
17,Adair,World's Largest Pecan,"119 W Broadway St, Brunswick, MO 65236, United States",39.42364750000001,-93.13095109999999,tourist,Missouri
18,Adair,Silver Dollar City,"399 Silver Dollar City Pkwy, Branson, MO 65616, United States",36.6664162,-93.33814369999999,tourist,Missouri
19,Adair,Rothwell Park,"S Holman Rd, Moberly, MO 65270, United States",39.42011840000001,-92.4651598,tourist,Missouri
20,Adair,IDK Cafe,"63531, 420 Main St, Baring, MO 63531, United States",40.24340189999999,-92.20474130000001,restaurant,Missouri
21,Adair,Kababesh Grill,"1101 E Normal Ave, Kirksville, MO 63501, United States",40.1900545,-92.5716381,restaurant,Missouri
22,Adair,Backroads Bar & Grill LLC,"106 Adair St, Brashear, MO 63533, United States",40.1475709,-92.3787486,restaurant,Missouri
23,Adair,Pagliai's Pizza,"101 W Washington St, Kirksville, MO 63501, United States",40.1945913,-92.583338,restaurant,Missouri
24,Adair,Maxwell's,"215 W Washington St, Kirksville, MO 63501, United States",40.1946071,-92.5851833,restaurant,Missouri
25,Adair,Greek Corner Gyros,"301 S Franklin St, Kirksville, MO 63501, United States",40.19291210000001,-92.5828633,restaurant,Missouri
26,Adair,Wooden Nickel,"114 S Elson St, Kirksville, MO 63501, United States",40.1941667,-92.5847222,restaurant,Missouri
27,Adair,Mi Casa Mexican Restaurant - Kirksville,"512 S Baltimore St, Kirksville, MO 63501, United States",40.1911713,-92.5725131,restaurant,Missouri
28,Adair,Diner 54,"2700 S Baltimore St, Kirksville, MO 63501, United States",40.1714619,-92.5724177,restaurant,Missouri
29,Adair,La Fuente,"1711 N Baltimore St, Kirksville, MO 63501, United States",40.2102142,-92.58211639999999,restaurant,Missouri
30,Adair,Rosie's Northtown Cafe,"2801 N Baltimore St, Kirksville, MO 63501, United States",40.2219275,-92.5833663,restaurant,Missouri
31,Adair,Bonzai,"112 W Harrison St, Kirksville, MO 63501, United States",40.1957025,-92.5837615,restaurant,Missouri
32,Adair,DuKum Inn,"111 S Elson St, Kirksville, MO 63501, United States",40.1941929,-92.5840126,restaurant,Missouri
33,Adair,Chick-fil-A,"901 S Franklin St, Kirksville, MO 63501, United States",40.1878838,-92.58265279999999,restaurant,Missouri
34,Adair,Lupita's,"114 W Harrison St, Kirksville, MO 63501, United States",40.1956845,-92.5838929,restaurant,Missouri
35,Adair,Baker's Smokehouse,"112 N Franklin St, Kirksville, MO 63501, United States",40.19510200000001,-92.5830261,restaurant,Missouri
36,Adair,Pancake City,"2101 N Baltimore St, Kirksville, MO 63501, United States",40.2139215,-92.58256879999999,restaurant,Missouri
37,Adair,Hy-Vee Market Grille,"500 N Baltimore St, Kirksville, MO 63501, United States",40.19759,-92.5694886,restaurant,Missouri
38,Adair,Thousand Hills LAKESIDE Dining Lodge,"20431 MO-157, Kirksville, MO 63501, United States",40.1836142,-92.6427078,restaurant,Missouri
39,Adair,Hunt Brothers Pizza,"305 W Hwy 6 St, Brashear, MO 63533, United States",40.1439459,-92.3823307,restaurant,Missouri
40,Adair,Northeast Regional Medical Center,"315 S Osteopathy Ave, Kirksville, MO 63501, United States",40.1927378,,heathcare,Missouri
41,Adair,Academic Medicine,"800 W Jefferson, W Jefferson St, Kirksville, MO 63501, United States",40.1941921,,heathcare,Missouri
42,Adair,Scotland County Hospital,"450 E Sigler Ave, Memphis, MO 63555, United States",40.4651104,,heathcare,Missouri
43,Adair,Pizza Hut,"US Highway 136, Memphis",40.451139,-92.16400809999999,restaurant,Missouri
44,Adair,Lacey's Family Diner,"303 North Clay Street, Memphis",40.4617825,-92.1724316,restaurant,Missouri
45,Adair,Keith's Cafe & Steakhouse,"470 South Market Street, Memphis",40.45190779999999,-92.1687985,restaurant,Missouri
46,Adair,Scotland County Health & Fitness,"Grand Avenue, Memphis",40.4510232,-92.1612097,gym,Missouri
47,Adair,Scotland County Hospital,"450 East Sigler Avenue, Memphis",40.46511039999999,-92.1642911,healthcare,Missouri
48,Andrew,Andrew County Museum,"202 E Duncan Dr, Savannah, MO 64485, United States",39.947351,-94.82133859999999,tourist,Missouri
49,Andrew,Pony Express National Museum,"914 Penn St, St Joseph, MO 64503, United States",39.7561952,-94.84862489999999,tourist,Missouri
50,Andrew,The Wyeth Tootle Mansion,"1100 Charles St, St Joseph, MO 64501, United States",39.7647772,-94.8460772,tourist,Missouri
51,Andrew,Krug Park,"3500 St Joseph Ave, St Joseph, MO 64505, United States",39.8014946,-94.85019129999999,tourist,Missouri
52,Andrew,Lake Contrary,"5220 SW Lakefront Ln W, St Joseph, MO 64504, United States",39.7205477,-94.906577,tourist,Missouri
53,Andrew,Loess Bluffs National Wildlife Refuge,"25542 US-159, Forest City, MO 64451, United States",40.0901518,-95.2453537,tourist,Missouri
54,Andrew,Glore Psychiatric Museum,"3406 Frederick Ave, St Joseph, MO 64506, United States",39.776436,-94.8084629,tourist,Missouri
55,Andrew,Fantastic Caverns,"4872 N Farm Rd 125, Springfield, MO 65803, United States",37.28800100000001,-93.359622,tourist,Missouri
56,Andrew,Jesse James Home Museum,"1201 S 12th St, St Joseph, MO 64503, United States",39.75564070000001,-94.8450476,tourist,Missouri
57,Andrew,Robidoux Row Museum and St Joseph Historical Society,"219 E Poulin St, St Joseph, MO 64501, United States",39.7746772,-94.8570144,tourist,Missouri
58,Andrew,Saint Joseph Riverwalk - North Entrance,"2098 McArthur Dr, St Joseph, MO 64505, United States",39.780131,-94.8754276,tourist,Missouri
59,Andrew,Sunbridge Hills Conservation Area,"St Joseph, MO 64505, United States",39.80934420000001,-94.8675308,tourist,Missouri
60,Andrew,Honey Creek Conservation Area,"Route RA, Amazonia, MO 64421, United States",39.9515384,-94.96469739999999,tourist,Missouri
61,Andrew,Happy Holler Lake,"6491 State Hwy D, Rea, MO 64480, United States",40.0285772,-94.73442209999999,tourist,Missouri
62,Andrew,El rey papi's Savannah mo,"421 W Main St, Savannah, MO 64485, United States",39.9417376,-94.8297454,restaurant,Missouri
63,Andrew,Diner 71,"302 N., S US Hwy 71, Savannah, MO 64485, United States",39.94378,-94.82264699999999,restaurant,Missouri
64,Andrew,Señor Barrigas Mexican Restaurant-Savanna,"107 US-71 BUS, Savannah, MO 64485, United States",39.9470293,-94.8246999,restaurant,Missouri
65,Andrew,Savannah Family Restaurant,"302 N US Hwy 71, Savannah, MO 64485, United States",39.9437384,-94.822419,restaurant,Missouri
66,Andrew,Burnt Ends BBQ,"110 S 5th St, Savannah, MO 64485, United States",39.94120059999999,-94.8304084,restaurant,Missouri
67,Andrew,The Pasture Cafe,"1605 West Business, N US Hwy 71, Savannah, MO 64485, United States",39.9511501,-94.8452817,restaurant,Missouri
68,Andrew,Pizza Shoppe,"410 Court St, Savannah, MO 64485, United States",39.940912,-94.82926239999999,restaurant,Missouri
69,Andrew,China Chinese Restaurant,"101 S 4th St, Savannah, MO 64485, United States",39.941378,-94.8286062,restaurant,Missouri
70,Andrew,Pizza Hut,"202 N US Hwy 71, Savannah, MO 64485, United States",39.942853,-94.82234849999999,restaurant,Missouri
71,Andrew,Dairy Queen Grill & Chill,"108 S US Hwy 71, Savannah, MO 64485, United States",39.94061809999999,-94.8223718,restaurant,Missouri
72,Andrew,Sonic Drive-In,"300 E William St, Savannah, MO 64485, United States",39.9444899,-94.820754,restaurant,Missouri
73,Andrew,Subway,"501A N US Hwy 71, Savannah, MO 64485, United States",39.9465198,-94.82230129999999,restaurant,Missouri
74,Andrew,Hunt Brothers Pizza,"8751 U. S. Hwy 71, Savannah, MO 64485, United States",39.999872,-94.878447,restaurant,Missouri
75,Andrew,Hank and Aces BBQ,"4230 St Joseph Ave, St Joseph, MO 64505, United States",39.8048526,-94.84199319999999,restaurant,Missouri
76,Andrew,Cheddar's Scratch Kitchen,"5302 N Belt Hwy, St Joseph, MO 64506, United States",39.8143868,-94.8159496,restaurant,Missouri
77,Andrew,54th Street Scratch Grill & Bar,"5103 N Belt Hwy, St Joseph, MO 64506, United States",39.8126908,-94.81436990000002,restaurant,Missouri
78,Andrew,Habiger West,"3508 N Belt Hwy suite d, St Joseph, MO 64506, United States",39.8022027,-94.8156678,restaurant,Missouri
79,Andrew,Wild Horse Cafe,"305 Richardson St, Bolckow, MO 64427, United States",40.1127439,-94.8225599,restaurant,Missouri
80,Andrew,Olive Garden Italian Restaurant,"5312 N Belt Hwy, St Joseph, MO 64506, United States",39.81494199999999,-94.815975,restaurant,Missouri
81,Andrew,Chick-fil-A,"5303 N Belt Hwy, St Joseph, MO 64506, United States",39.8142747,-94.8144234,restaurant,Missouri
82,Andrew,Northwest Health Services,"2303 Village Dr, St Joseph, MO 64506, United States",39.7881141,,heathcare,Missouri
83,Andrew,Belton Regional Medical Center,"17065 U. S. Hwy 71, Belton, MO 64012, United States",38.8159187,,heathcare,Missouri
84,Andrew,North End Health Center,"1000 5th Ave, St Joseph, MO 64505, United States",39.7874776,,heathcare,Missouri
85,Andrew,Cedar County Memorial Hospital,"1401 S Park St, El Dorado Springs, MO 64744, United States",37.8601467,,heathcare,Missouri
86,Andrew,Children's Mercy St. Joseph,"802 N Riverside Rd Suite 105, St Joseph, MO 64501, United States",39.77338049999999,,heathcare,Missouri
87,Andrew,Cox Barton County Hospital,"29 NW 1st Ln, Lamar, MO 64759, United States",37.50568610000001,,heathcare,Missouri
88,Andrew,Mercy Hospital Springfield,"1235 E Cherokee St, Springfield, MO 65804, United States",37.1781178,,heathcare,Missouri
89,Andrew,Mosaic Life Center - GI Parking Lot,"Hospital Heliport, St Joseph, MO 64506, United States",39.771366,,heathcare,Missouri
90,Andrew,Northwest Missouri Psychiatric Rehabilitation Center,"3505 Frederick Ave, St Joseph, MO 64506, United States",39.7784892,,heathcare,Missouri
91,Andrew,University Hospital,"1 Hospital Dr, Columbia, MO 65212, United States",38.9385546,,heathcare,Missouri
92,Andrew,Excelsior Springs Hospital,"1700 Rainbow Blvd, Excelsior Springs, MO 64024, United States",39.363101,,heathcare,Missouri
93,Andrew,Prime Healthcare,"1000 Carondelet Dr, Kansas City, MO 64114, United States",38.9367113,,heathcare,Missouri
94,Andrew,Washington County Memorial Hospital,"300 Healthway Dr, Potosi, MO 63664, United States",37.9259365,,heathcare,Missouri
95,Andrew,South Side Health Center,"5001 Lake Ave, St Joseph, MO 64504, United States",39.7229169,,heathcare,Missouri
96,Andrew,SSM Health St. Joseph Hospital - Lake Saint Louis,"100 Medical Plaza, Lake St Louis, MO 63367, United States",38.80279609999999,,heathcare,Missouri
97,Andrew,Liberty Hospital,"2525 Glenn Hendren Dr, Liberty, MO 64068, United States",39.2750333,,heathcare,Missouri
98,Andrew,Mercy Hospital Cassville,"94 Main St, Cassville, MO 65625, United States",36.6747396,,heathcare,Missouri
99,Andrew,Mercy Hospital Carthage,"3125 Dr Russell Smith Way, Carthage, MO 64836, United States",37.136117,,heathcare,Missouri
100,Andrew,Cox North Hospital,"1423 N Jefferson Ave, Springfield, MO 65802, United States",37.2248227,,heathcare,Missouri
101,Andrew,Carroll County Memorial Hospital,"1502 N Jefferson St, Carrollton, MO 64633, United States",39.376687,,heathcare,Missouri
102,Andrew,Subway,"1300 N 65 Unit F, Carrollton",39.37213039999999,-93.4844438,restaurant,Missouri
103,Andrew,McDonald's,"1001 U.S. 65, Carrollton",39.37022100000001,-93.485365,restaurant,Missouri
104,Andrew,River Bottoms Brewing Company,"12 West Benton Street, Carrollton",39.3587369,-93.4966386,restaurant,Missouri
105,Andrew,Main Street Restaurant,"11 South Main Street, Carrollton",39.35809270000001,-93.49583849999999,restaurant,Missouri
106,Andrew,Sonic Drive-In,"814 Harvest Hills Drive, Carrollton",39.3680262,-93.48411569999999,restaurant,Missouri
107,Andrew,Burger Bar and More,"814 South Main Street, Carrollton",39.3482284,-93.4961853,restaurant,Missouri
108,Andrew,Pizza Hut,"1406 N 65 Hwy, Carrollton",39.3760504,-93.4844519,restaurant,Missouri
109,Andrew,Ol Boy's Barbeque,"701 North Mason Street, Carrollton",39.3664627,-93.4862594,restaurant,Missouri
110,Andrew,El Toro,"601 North Mason Street, Carrollton",39.3652191,-93.4864273,restaurant,Missouri
111,Andrew,The Wing Dive,"509 North Mason Street, Carrollton",39.3648402,-93.4866321,restaurant,Missouri
112,Andrew,Shapes Dance & Acro L.L.C.,"1018 East 10th Street, Carrollton",39.368941,-93.481206,gym,Missouri
113,Andrew,Carroll County Memorial Hospital,"1502 North Jefferson Street, Carrollton",39.376687,-93.493184,healthcare,Missouri
114,Atchison,Amelia Earhart Birthplace Museum,"223 N Terrace St, Atchison, KS 66002, United States",39.563747,-95.114485,tourist,Missouri
115,Atchison,1889 McInteer Villa,"1301 Kansas Ave, Atchison, KS 66002, United States",39.5632773,-95.1334964,tourist,Missouri
116,Atchison,International Forest of Friendship,"Allingham Dr, Atchison, KS 66002, United States",39.5334242,-95.1488042,tourist,Missouri
117,Atchison,Pony Express National Museum,"914 Penn St, St Joseph, MO 64503, United States",39.7561952,-94.84862489999999,tourist,Missouri
118,Atchison,Four State Lookout,"3rd St, White Cloud, KS 66094, United States",39.9797707,-95.299358,tourist,Missouri
119,Atchison,Robidoux Row Museum and St Joseph Historical Society,"219 E Poulin St, St Joseph, MO 64501, United States",39.7746772,-94.8570144,tourist,Missouri
120,Atchison,The Wyeth Tootle Mansion,"1100 Charles St, St Joseph, MO 64501, United States",39.7647772,-94.8460772,tourist,Missouri
121,Atchison,Loess Bluffs National Wildlife Refuge,"25542 US-159, Forest City, MO 64451, United States",40.0901518,-95.2453537,tourist,Missouri
122,Atchison,Weston Bend State Park,"16600 MO-45, Weston, MO 64098, United States",39.3922541,-94.8656556,tourist,Missouri
123,Atchison,Meramec Caverns,"1135 Hwy W, Sullivan, MO 63080, United States",38.241078,-91.091995,tourist,Missouri
124,Atchison,Worlds of Fun,"4545 Worlds of Fun Ave, Kansas City, MO 64161, United States",39.1765826,-94.48624799999999,tourist,Missouri
125,Atchison,The Gateway Arch,"Gateway Arch, St. Louis, MO 63102, United States",38.6251269,-90.1867504,tourist,Missouri
126,Atchison,Lewis and Clark Interpretive Trails and Visitor Center (Missouri River Basin),"100 Valmont Dr, Nebraska City, NE 68410, United States",40.666537,-95.83120339999999,tourist,Missouri
127,Atchison,Bluffwoods Conservation Area,"SW Bluff Rd, St Joseph, MO 64504, United States",39.622563,-94.9662542,tourist,Missouri
128,Atchison,Indian Cave State Park,"65296 720 Rd, Shubert, NE 68437, United States",40.2647961,-95.57981009999999,tourist,Missouri
129,Atchison,Museum of Westward Expansion,"11 N 4th St, St. Louis, MO 63102, United States",38.6256726,-90.1892685,tourist,Missouri
130,Atchison,C. W. Parker Carousel Museum,"320 S Esplanade St, Leavenworth, KS 66048, United States",39.3172535,-94.9093759,tourist,Missouri
131,Atchison,Constitution Hall State Historic Site,"319 Elmore St, Lecompton, KS 66050, United States",39.0454013,-95.3946208,tourist,Missouri
132,Atchison,Lewis and Clark State Park,"801 Lakecrest Blvd, Rushville, MO 64484, United States",39.5380764,-95.05790019999999,tourist,Missouri
133,Atchison,Thurnau Conservation Area,"Craig, MO 64437, United States",40.1732459,-95.4489523,tourist,Missouri
134,Atchison,Riverhouse Restaurant,"101 Commercial St, Atchison, KS 66002, United States",39.5620357,-95.11446409999999,restaurant,Missouri
135,Atchison,Jerrys Again,"125 N 5th St #2406, Atchison, KS 66002, United States",39.56282820000001,-95.1193752,restaurant,Missouri
136,Atchison,Pete's Steak House,"618 Commercial St, Atchison, KS 66002, United States",39.561591,-95.12140509999999,restaurant,Missouri
137,Atchison,Trotter's on the River,"102 E Atchison St, Atchison, KS 66002, United States",39.5648887,-95.113055,restaurant,Missouri
138,Atchison,Lopez De Mexico Restaurant,"112 S 6th St, Atchison, KS 66002, United States",39.5614094,-95.12039140000002,restaurant,Missouri
139,Atchison,"Paolucci Restaurant, Deli & Lounge","113 S 3rd St, Atchison, KS 66002, United States",39.561233,-95.11662400000002,restaurant,Missouri
140,Atchison,JW's Boys BBQ,"1400 Skyway Hwy #59, Atchison, KS 66002, United States",39.5566919,-95.13584150000001,restaurant,Missouri
141,Atchison,Young Dragon Chinese Restaurant,"808 Skyway Hwy, Atchison, KS 66002, United States",39.559006,-95.123975,restaurant,Missouri
142,Atchison,Mueller's Lockeroom,"120 S 2nd St, Atchison, KS 66002, United States",39.5610489,-95.11512189999999,restaurant,Missouri
143,Atchison,Mr. G's Restaurant,"1700 Main St, Atchison, KS 66002, United States",39.56068150000001,-95.14400889999999,restaurant,Missouri
144,Atchison,Willie's,"701 Commercial St, Atchison, KS 66002, United States",39.5621324,-95.1219198,restaurant,Missouri
145,Atchison,Taco John's,"216 S 10th St, Atchison, KS 66002, United States",39.5595349,-95.1269849,restaurant,Missouri
146,Atchison,Pizza Hut,"333 S 10th St, Atchison, KS 66002, United States",39.5580522,-95.1277799,restaurant,Missouri
147,Atchison,Gambino's Pizza,"610 Commercial St, Atchison, KS 66002, United States",39.5614705,-95.1210571,restaurant,Missouri
148,Atchison,Dairy Queen,"412 S 10th St, Atchison, KS 66002, United States",39.5572769,-95.1268987,restaurant,Missouri
149,Atchison,McDonald's,"118 S 8th St, Atchison, KS 66002, United States",39.5611459,-95.1231138,restaurant,Missouri
150,Atchison,Cedar Ridge Catering & Banquet Hall,"17028 318th Rd, Atchison, KS 66002, United States",39.6229465,-95.1715226,restaurant,Missouri
151,Atchison,Esters at Pineview Country Club,"5882 Ottawa Rd, Atchison, KS 66002, United States",39.5238647,-95.1800537,restaurant,Missouri
152,Atchison,Potter Country Store,"18343 KS-74, Atchison, KS 66002, United States",39.4265313,-95.14181959999999,restaurant,Missouri
153,Atchison,Boudreaux's Louisiana Seafood & Steaks,"224 N Fourth St, St Joseph, MO 64501, United States",39.7680105,-94.8555635,restaurant,Missouri
154,Atchison,Community Hospital Fairfax,"26136 US-59, Fairfax, MO 64446, United States",40.3495263,,heathcare,Missouri
155,Atchison,Atchison Hospital: Emergency Room,"800 Ravenhill Dr, Atchison, KS 66002, United States",39.5364969,,heathcare,Missouri
156,Atchison,George C. Grape Community Hospital,"2959 US-275, Hamburg, IA 51640, United States",40.620577,,heathcare,Missouri
157,Atchison,Rock Port Family Medicine,"100 E Cass St, Rock Port, MO 64482, United States",40.4118651,,heathcare,Missouri
158,Atchison,Shenandoah Medical Center,"300 Pershing Ave, Shenandoah, IA 51601, United States",40.752719,,heathcare,Missouri
159,Atchison,Saint John Hospital,"3500 S 4th St, Leavenworth, KS 66048, United States",39.2823672,,heathcare,Missouri
160,Atchison,Stanton Lake Healthcare,"E 21st St, Falls City, NE 68355, United States",40.06203050000001,,heathcare,Missouri
161,Atchison,Nemaha County Hospital,"2022 13th St, Auburn, NE 68305, United States",40.3911337,,heathcare,Missouri
162,Atchison,Amberwell Hiawatha,"300 Utah St, Hiawatha, KS 66434, United States",39.8521584,,heathcare,Missouri
163,Atchison,Sabetha Community Hospital,"Oregon St & S 14th St, Sabetha, KS 66534, United States",39.8989099,,heathcare,Missouri
164,Atchison,Community Medical Center,"3307 Barada St, Falls City, NE 68355, United States",40.077831,,heathcare,Missouri
165,Atchison,Kansas City VA Medical Center,"4801 Linwood Blvd, Kansas City, MO 64128, United States",39.0640421,,heathcare,Missouri
166,Atchison,Northwest Health Services,"2303 Village Dr, St Joseph, MO 64506, United States",39.7881141,,heathcare,Missouri
167,Atchison,The University of Kansas Hospital,"4000 Cambridge St, Kansas City, KS 66160, United States",39.0558436,,heathcare,Missouri
168,Atchison,Joe's Kansas City Bar-B-Que,"3002 West 47th Avenue, Kansas City",39.04444819999999,-94.6207405,restaurant,Missouri
169,Atchison,Jack Stack Barbecue - Plaza,"4747 Wyandotte Street, Kansas City",39.0412556,-94.5886417,restaurant,Missouri
170,Atchison,Jack Stack Barbecue - Freight House,"101 West 22nd Street, Kansas City",39.08741000000001,-94.5852962,restaurant,Missouri
171,Atchison,The Cheesecake Factory,"4701 Wyandotte Street, Kansas City",39.0420622,-94.5885588,restaurant,Missouri
172,Atchison,Buca di Beppo Italian Restaurant,"310 West 47th Street, Kansas City",39.0425894,-94.5906364,restaurant,Missouri
173,Atchison,Pierpont's at Union Station,"30 West Pershing Road, Kansas City",39.0850273,-94.5849205,restaurant,Missouri
174,Atchison,McCormick & Schmick's Seafood & Steaks,"448 West 47th Street, Kansas City",39.0426046,-94.5932546,restaurant,Missouri
175,Atchison,Grand Street Cafe,"4740 Grand Avenue, Kansas City",39.0413336,-94.5854675,restaurant,Missouri
176,Atchison,P.F. Chang's,"102 West 47th Street, Kansas City",39.0425008,-94.5885435,restaurant,Missouri
177,Atchison,Kona Grill,"444 Ward Parkway, Kansas City",39.0405473,-94.5931112,restaurant,Missouri
178,Atchison,Fritz's,"2450 Grand Boulevard, Kansas City",39.0825886,-94.5826944,restaurant,Missouri
179,Atchison,Danny Edwards BLVD BBQ,"2900 Southwest Boulevard, Kansas City",39.07522400000001,-94.6039737,restaurant,Missouri
180,Atchison,Lidia’s,"101 West 22nd Street, Kansas City",39.0877163,-94.5847287,restaurant,Missouri
181,Atchison,Gates Bar-B-Q,"3205 Main Street, Kansas City",39.06899539999999,-94.5850814,restaurant,Missouri
182,Atchison,Brio Italian Grille,"502 Nichols Drive, Kansas City",39.04152399999999,-94.59378269999999,restaurant,Missouri
183,Atchison,Panera Bread,"2405 Grand Boulevard, Kansas City",39.083295,-94.58148899999999,restaurant,Missouri
184,Atchison,Beer Kitchen,"435 Westport Road, Kansas City",39.0527781,-94.59118219999999,restaurant,Missouri
185,Atchison,Gram & Dun,"600 Ward Parkway, Kansas City",39.04030869999999,-94.5940799,restaurant,Missouri
186,Atchison,Ponak's Mexican Kitchen & Bar,"2856 Southwest Boulevard, Kansas City",39.075619,-94.60327769999999,restaurant,Missouri
187,Atchison,The Capital Grille,"4760 Broadway Boulevard, Kansas City",39.0406968,-94.5919504,restaurant,Missouri
188,Atchison,Temple Buddhist Center,"707 West 47th Street, Kansas City",39.0420863,-94.5952439,gym,Missouri
189,Atchison,CrossFit Matters,"735 Southwest Boulevard, Kansas City",39.0629767,-94.6185311,gym,Missouri
190,Atchison,theGYMkc: Uptown,"3610 Broadway Boulevard, Kansas City",39.0621147,-94.5923309,gym,Missouri
191,Atchison,UMKC Campus Recreation at Swinney Center,"5030 Holmes Street, Kansas City",39.0352674,-94.57876879999999,gym,Missouri
192,Atchison,Woodside,"2000 West 47th Place, Westwood",39.04342559999999,-94.6102308,gym,Missouri
193,Atchison,"Hitch Fit Gym - Kansas City, MO","3036 Gillham Road, Kansas City",39.07117,-94.5791078,gym,Missouri
194,Atchison,MOJO Cycling Studio,"4722 Broadway Boulevard #220, Kansas City",39.0416534,-94.5917783,gym,Missouri
195,Atchison,CorePower Yoga,"4725 Wyandotte Street, Kansas City",39.04139740000001,-94.5887442,gym,Missouri
196,Atchison,Spears Personal Training,"4700 Belleview Avenue, Kansas City",39.0421886,-94.5988601,gym,Missouri
197,Atchison,Kamba Fit,"1409 Westport Road, Kansas City",39.049814,-94.60316999999999,gym,Missouri
198,Atchison,The Port KC Fitness and Performance,"4001 Broadway Boulevard, Kansas City",39.05423399999999,-94.59060199999999,gym,Missouri
199,Atchison,BodySmith Personal Training,"1901 West 43rd Avenue, Kansas City",39.04995600000001,-94.60752409999999,gym,Missouri
200,Atchison,The Crosstraining Club of Westwood,"4744 Rainbow Boulevard, Westwood",39.0414917,-94.6125194,gym,Missouri
201,Atchison,The Bar Method Kansas City - West Plaza,"4722 Rainbow Boulevard, Westwood",39.042079,-94.612562,gym,Missouri
202,Atchison,Full Circle Yoga KC,"4327 Troost Avenue, Kansas City",39.0478378,-94.57238960000001,gym,Missouri
203,Atchison,Bodyfit KC,"3838 Main Street, Kansas City",39.0569413,-94.5862927,gym,Missouri
204,Atchison,Convocation Center,"1115 Rockhurst Road, Kansas City",39.0321136,-94.5703722,gym,Missouri
205,Atchison,Orangetheory Fitness,"6236 Main Street, Kansas City",39.0146422,-94.5886021,gym,Missouri
206,Atchison,Life Adapted Fitness,"414 East 63rd Street #101, Kansas City",39.013958,-94.58306999999999,gym,Missouri
207,Atchison,KC Yoga Kula,"912 East 63rd Street, Kansas City",39.01355599999999,-94.576032,gym,Missouri
208,Atchison,Saint Luke's Hospital of Kansas City,"4401 Wornall Road, Kansas City",39.0486683,-94.59079860000001,healthcare,Missouri
209,Atchison,Research Medical Center,"2316 East Meyer Boulevard, Kansas City",39.0079093,-94.5579308,healthcare,Missouri
210,Atchison,Fresenius Medical Care at St Luke'S Hospital Of Kansas City,"4401 Wornall Road, Kansas City",39.0460972,-94.58992940000002,healthcare,Missouri
211,Atchison,Saint Luke's Maternal-Fetal Medicine Specialists-Plaza,"Peet Center, 4401 Wornall Road #1, Kansas City",39.0477453,-94.5901791,healthcare,Missouri
212,Atchison,Midwest Nephrology Consultants,"2340 E Meyer Blvd Building 2 #480, 6400 Prospect Avenue, Kansas City",39.0100512,-94.5573653,healthcare,Missouri
213,Atchison,Midwest Cardiovascular & Thoracic Surgery at Research Medical Center,"6400 Prospect Avenue #382, Kansas City",39.0103698,-94.5566441,healthcare,Missouri
214,Atchison,Maternal & Child Health,"6400 Prospect Avenue # 216, Kansas City",39.0101437,-94.5574919,healthcare,Missouri
215,Atchison,Intervention Radiology Center,"4401 Wornall Road, Kansas City",39.0460972,-94.58992940000002,healthcare,Missouri
216,Atchison,Planned Parenthood - Patty Brous Health Center,"1001 Emanuel Cleaver II Boulevard, Kansas City",39.0414875,-94.573842,healthcare,Missouri
217,Atchison,Hmcc,"6675 Holmes Road # 500, Kansas City",39.0069414,-94.5776865,healthcare,Missouri
218,Atchison,Research Medical Center Brookside Campus,"6601 Rockhill Road, Kansas City",39.0069946,-94.5772109,healthcare,Missouri
219,Atchison,Univ of Kansas Medical Center,"2330 Shawnee Mission Parkway, Westwood",39.03390399999999,-94.61297900000001,healthcare,Missouri
220,Atchison,US Veterans Center,"4800 Main Street Suite 107, Kansas City",39.038957,-94.587904,healthcare,Missouri
221,Atchison,Saint Luke's Mid America Heart Institute,"4401 Wornall Road, Kansas City",39.0477453,-94.5901791,healthcare,Missouri
222,Atchison,Saint Luke's Hospital of Kansas City Medical Plaza III,"4321 Washington St Stes 1000 - 9999, 4321 Washington Street suite 6100, Kansas City",39.0484152,-94.59069,healthcare,Missouri
223,Atchison,DaVita Swope Dialysis,"4407 East 50th Terrace, Kansas City",39.0334759,-94.53299299999999,healthcare,Missouri
224,Atchison,Saint Luke’s Family Care,"4620 Mill Creek Parkway #405, Kansas City",39.04339890000001,-94.5890053,healthcare,Missouri
225,Atchison,The University of Kansas Health System,"7400 State Line Road, Prairie Village",38.9944663,-94.608373,healthcare,Missouri
226,Atchison,Research hospital,"E Meyer Blvd &, East 63rd Street, Kansas City",39.012999,-94.568156,healthcare,Missouri
227,Atchison,Rock Hill Medical Plaza,"Research Medical Center Brookside, 6675 Holmes Road, Kansas City",39.0062013,-94.5781219,healthcare,Missouri
228,Audrain,Green Estate Park,"Mexico, MO 65265, United States",39.152352,-91.885021,tourist,Missouri
229,Audrain,Graham Cave State Park,"217 State Hwy TT, Danville, MO 63361, United States",38.9065155,-91.57843849999999,tourist,Missouri
230,Audrain,Union Covered Bridge State Historic Site,"20700 Monroe County Road 962, Paris, MO 65275, United States",39.4329326,-92.10208300000001,tourist,Missouri
231,Audrain,Mark Twain Birthplace State Historic Site,"37352 Shrine Rd, Florida, MO 65283, United States",39.4883502,-91.7856863,tourist,Missouri
232,Audrain,Elephant Rocks State Park,"7390, 7406 MO-21, Belleview, MO 63623, United States",37.65448749999999,-90.6879919,tourist,Missouri
233,Audrain,David R. Francis Quadrangle Historic District,"410 S 6th St, Columbia, MO 65211, United States",38.946291,-92.32865749999999,tourist,Missouri
234,Audrain,Mastodon State Historic Site,"1050 Charles J Becker Dr, Imperial, MO 63052, United States",38.3789764,-90.3848299,tourist,Missouri
235,Audrain,America's National Churchill Museum,"501 Westminster Ave, Fulton, MO 65251, United States",38.8500391,-91.9544836,tourist,Missouri
236,Audrain,Lakeview Park,"927 Lakeview Rd, Mexico, MO 65265, United States",39.1553007,-91.89344009999999,tourist,Missouri
237,Audrain,Meramec Caverns,"1135 Hwy W, Sullivan, MO 63080, United States",38.241078,-91.091995,tourist,Missouri
238,Audrain,Centralia Museum,"319 E Sneed St, Centralia, MO 65240, United States",39.2101644,-92.13472,tourist,Missouri
239,Audrain,Johnson's Shut-Ins State Park,"148 Taum Sauk Trail, Middle Brook, MO 63656, United States",37.5490014,-90.8483783,tourist,Missouri
240,Audrain,Ha Ha Tonka State Park,"1491 Missouri D, Camdenton, MO 65020, United States",37.9669648,-92.7604189,tourist,Missouri
241,Audrain,Dinosaur Fun,"13188 Hwy T, Centralia, MO 65240, United States",39.2677557,-92.05938470000001,tourist,Missouri
242,Audrain,Fantastic Caverns,"4872 N Farm Rd 125, Springfield, MO 65803, United States",37.28800100000001,-93.359622,tourist,Missouri
243,Audrain,Onondaga Cave State Park,"7556 Missouri H, Leasburg, MO 65535, United States",38.0619594,-91.23617139999999,tourist,Missouri
244,Audrain,"Bonne Terre Mine ""The Mine at Bonne Terre""","185 Park Ave, Bonne Terre, MO 63628, United States",37.922527,-90.551518,tourist,Missouri
245,Audrain,Whetstone Creek Conservation Area.,"Williamsburg, MO 63388, United States",38.958341,-91.7200469,tourist,Missouri
246,Audrain,Mark Twain Memorial Lighthouse,"E Rock St, Hannibal, MO 63401, United States",39.7144188,-91.35900830000001,tourist,Missouri
247,Audrain,Smallin Civil War Cave,"3575 N Smallin Rd, Ozark, MO 65721, United States",37.0527829,-93.18761860000001,tourist,Missouri
248,Audrain,The 581,"107 S Washington St, Mexico, MO 65265, United States",39.1718774,-91.8837674,restaurant,Missouri
249,Audrain,Stacey's Place,"4501 E Liberty St, Mexico, MO 65265, United States",39.1638182,-91.8330606,restaurant,Missouri
250,Audrain,Diner 54,"2751 S Clark St, Mexico, MO 65265, United States",39.1483543,-91.8894067,restaurant,Missouri
251,Audrain,TJ’s Roadhouse,"112 S Jefferson St, Mexico, MO 65265, United States",39.1716992,-91.8823113,restaurant,Missouri
252,Audrain,Dos Arcos,"1425 W Monroe St, Mexico, MO 65265, United States",39.1762921,-91.9011816,restaurant,Missouri
253,Audrain,Ori Hibachi On Wheels,"1123 E Liberty St, Mexico, MO 65265, United States",39.170581,-91.8717167,restaurant,Missouri
254,Audrain,Buckys sit or get,"1640 E Liberty St, Mexico, MO 65265, United States",39.1666903,-91.86344559999999,restaurant,Missouri
255,Audrain,Mi Casa Mexican Restaurant,"2780 S Clark St, Mexico, MO 65265, United States",39.1472328,-91.8888382,restaurant,Missouri
256,Audrain,PapaWalla,"112 S Washington St, Mexico, MO 65265, United States",39.1716714,-91.88340790000001,restaurant,Missouri
257,Audrain,Hardee's,"707 W Jackson St, Mexico, MO 65265, United States",39.1728257,-91.8904003,restaurant,Missouri
258,Audrain,Dagwood Jr,"216 W Promenade St, Mexico, MO 65265, United States",39.1711693,-91.88432329999999,restaurant,Missouri
259,Audrain,Pratts On Monroe,"115 W Monroe St, Mexico, MO 65265, United States",39.1730958,-91.8831764,restaurant,Missouri
260,Audrain,airport,"Airport Rd, Mexico, MO 65265, United States",39.1602782,-91.8228317,restaurant,Missouri
261,Audrain,DQ Grill & Chill Restaurant,"3076 S Clark St, Mexico, MO 65265, United States",39.1443108,-91.8898061,restaurant,Missouri
262,Audrain,Sonic Drive-In,"808 E Liberty St, Mexico, MO 65265, United States",39.1700039,-91.87469349999999,restaurant,Missouri
263,Audrain,Vega's Burritos LLC,"113 S Washington St, Mexico, MO 65265, United States",39.171717,-91.88376099999999,restaurant,Missouri
264,Audrain,China King,"2797 S Clark St, Mexico, MO 65265, United States",39.1474093,-91.8913963,restaurant,Missouri
265,Audrain,Champs Chicken,"1101 W Monroe St, Mexico, MO 65265, United States",39.1746041,-91.8957239,restaurant,Missouri
266,Audrain,Domino's Pizza,"827 W Monroe St, Mexico, MO 65265, United States",39.1733917,-91.89255779999999,restaurant,Missouri
267,Audrain,Pizza Hut,"707 W Monroe St, Mexico, MO 65265, United States",39.1733869,-91.8904243,restaurant,Missouri
268,Audrain,Mexico VA Clinic,"3460 South Clark Street, Mexico, MO 65265, United States",39.1830773,,heathcare,Missouri
269,Audrain,University Hospital,"1 Hospital Dr, Columbia, MO 65212, United States",38.9385546,,heathcare,Missouri
270,Audrain,Noyes Hospital,"Noyes Hall, Columbia, MO 65201, United States",38.9467636,,heathcare,Missouri
271,Audrain,Landmark Hospital,"604 Old 63 N, Columbia, MO 65201, United States",38.9580232,,heathcare,Missouri
272,Audrain,Boone Hospital Center,"1600 E Broadway, Columbia, MO 65201, United States",38.9494785,,heathcare,Missouri
273,Audrain,Fulton State Hospital,"600 E 5th St, Fulton, MO 65251, United States",38.8468008,,heathcare,Missouri
274,Audrain,University Hospital Emergency Department,"1 Hospital Dr, Columbia, MO 65212, United States",38.9381759,,heathcare,Missouri
275,Audrain,Shakespeare's Pizza - Downtown,"225 South 9th Street, Columbia",38.94866949999999,-92.32790639999999,restaurant,Missouri
276,Audrain,White Castle,"3401 Clark Lane, Columbia",38.9643217,-92.2868563,restaurant,Missouri
277,Audrain,Flat Branch Pub & Brewing,"115 South 5th Street, Columbia",38.950139,-92.332031,restaurant,Missouri
278,Audrain,G & D Pizzaria,"2101 West Broadway, Columbia",38.9550954,-92.37338559999999,restaurant,Missouri
279,Audrain,Subway,"503 East Nifong Boulevard Suite D, Columbia",38.91177330000001,-92.33270259999999,restaurant,Missouri
280,Audrain,Shakespeare's Pizza - South,"3911 Peachtree Drive, Columbia",38.9061531,-92.3371007,restaurant,Missouri
281,Audrain,Starbucks,"2500 Broadway Bluffs Drive, Columbia",38.9474513,-92.30112749999999,restaurant,Missouri
282,Audrain,Subway,"27 Conley Road Suite C, Columbia",38.95053,-92.29617429999999,restaurant,Missouri
283,Audrain,Subway,"607 Business Loop 70 East, Columbia",38.9643854,-92.3295034,restaurant,Missouri
284,Audrain,Golden Corral Buffet & Grill,"3421 Clark Lane, Columbia",38.9644742,-92.2850077,restaurant,Missouri
285,Audrain,Subway,"909 Hitt St Hitt Street Market, Columbia",38.93966289999999,-92.3256676,restaurant,Missouri
286,Audrain,Subway,"2716 Paris Road Suite, Columbia",38.97877099999999,-92.2947349,restaurant,Missouri
287,Audrain,Subway,"5612 East Saint Charles Road Suite B, Columbia",38.9609838,-92.25179299999999,restaurant,Missouri
288,Audrain,Subway,"402 Kentucky Boulevard, Columbia",38.93893719999999,-92.3330965,restaurant,Missouri
289,Audrain,Chipotle Mexican Grill,"306 South 9th Street, Columbia",38.9479732,-92.3274125,restaurant,Missouri
290,Audrain,Subway,"1406 Forum Boulevard #100, Columbia",38.936985,-92.3598069,restaurant,Missouri
291,Audrain,Freddy's Frozen Custard & Steakburgers,"100 Brickton Road, Columbia",38.947901,-92.29546099999999,restaurant,Missouri
292,Audrain,Noodles and Company,"406 South 9th Street, Columbia",38.9469646,-92.3273098,restaurant,Missouri
293,Audrain,Murry's,"3107 Green Meadows Way, Columbia",38.91715759999999,-92.3373403,restaurant,Missouri
294,Audrain,Subway,"2101 West Broadway Suite 102, Columbia",38.9555562,-92.3721144,restaurant,Missouri
295,Audrain,MizzouRec,"1000 Rollins Street, Columbia",38.94149400000001,-92.326565,gym,Missouri
296,Audrain,Wilson's Fitness,"2902 Forum Boulevard, Columbia",38.9216804,-92.3622589,gym,Missouri
297,Audrain,Flipz USA,"900 Hillsdale Road, Columbia",38.9591841,-92.2757946,gym,Missouri
298,Audrain,Anytime Fitness,"3200 Penn Terrace, Columbia",38.96567470000001,-92.2848479,gym,Missouri
299,Audrain,Transformational Fitness,"2201 Chapel Plaza Court, Columbia",38.92825310000001,-92.36502109999999,gym,Missouri
300,Audrain,Planet Fitness,"2101 West Broadway, Columbia",38.95550649999999,-92.37247529999999,gym,Missouri
301,Audrain,Eagle Elite Cheerleading,"2309 Industrial Drive, Columbia",38.97935369999999,-92.3728107,gym,Missouri
302,Audrain,Yoga of Life,"4402 Gage Place, Columbia",38.93671369999999,-92.40200999999999,gym,Missouri
303,Audrain,University of Missouri Golf Course,"18 Stadium Boulevard, Columbia",38.9314554,-92.3482633,gym,Missouri
304,Audrain,Limitless Pilates,"2718 Forum Boulevard #4a, Columbia",38.9229287,-92.3646658,gym,Missouri
305,Audrain,Kamala Yoga,"2416 Cimarron Drive, Columbia",38.92495609999999,-92.34881089999999,gym,Missouri
306,Audrain,CrossFit Aggregate,"609 Big Bear Boulevard #101, Columbia",38.9778291,-92.3300536,gym,Missouri
307,Audrain,CrossFit MKT,"4103 West Vawter School Road, Columbia",38.91357120000001,-92.3975002,gym,Missouri
308,Audrain,CrossFit Fringe,"901 Old 63 North, Columbia",38.960943,-92.3109714,gym,Missouri
309,Audrain,Athletes Performance Institute,"128 East Nifong Boulevard suite d, Columbia",38.9090585,-92.336874,gym,Missouri
310,Audrain,Body Refinery Gym,"120 East Nifong Boulevard Ste. D, Columbia",38.9081439,-92.3374559,gym,Missouri
311,Audrain,Sumits Hot Yoga Columbia,"505 East Nifong Boulevard #103, Columbia",38.910349,-92.33179349999999,gym,Missouri
312,Audrain,Rifkin Professional Karate Center,"502 Cooper Drive North, Columbia",38.9087351,-92.3325656,gym,Missouri
313,Audrain,Wilson's Beach Club,"4600 Forum Boulevard, Columbia",38.9003609,-92.3550863,gym,Missouri
314,Audrain,Rebecca Peters Wellness,"920 East Broadway # 203, Columbia",38.9511783,-92.32663199999999,gym,Missouri
315,Audrain,Boone Hospital Center,"1600 East Broadway, Columbia",38.9494785,-92.3161059,healthcare,Missouri
316,Audrain,University Hospital,"1 Hospital Drive, Columbia",38.9385546,-92.3274421,healthcare,Missouri
317,Audrain,"Pediatric Plastic Surgery, University of Missouri Children's Hospital","1 Hospital Drive, Columbia",38.9381593,-92.3285858,healthcare,Missouri
318,Audrain,MU Health,"1 Hospital Drive, Columbia",38.9382111,-92.32857369999999,healthcare,Missouri
319,Audrain,Women's Hospital,"404 North Keene Street, Columbia",38.9577116,-92.2885304,healthcare,Missouri
320,Audrain,Rusk Rehabilitation Hospital,"315 Business Loop 70 West, Columbia",38.9663767,-92.34206999999999,healthcare,Missouri
321,Audrain,Boone Hospital Center Birthing,"1600 East Broadway, Columbia",38.94903,-92.315626,healthcare,Missouri
322,Audrain,Missouri Cancer Associates - Columbia,"1705 East Broadway, Columbia",38.9504108,-92.31315029999999,healthcare,Missouri
323,Audrain,Boone Hospital Center Outpatient,"1600 East Broadway, Columbia",38.9485383,-92.31604659999999,healthcare,Missouri
324,Audrain,Hy-Vee Pharmacy,"25 Conley Road, Columbia",38.94972839999999,-92.2964226,healthcare,Missouri
325,Audrain,"Uma Ramadoss, MD","1705 East Broadway, Columbia",38.9504108,-92.31315029999999,healthcare,Missouri
326,Audrain,Hy-Vee Pharmacy,"3100 West Broadway, Columbia",38.9533593,-92.383718,healthcare,Missouri
327,Audrain,"Elangovan Balakrishnan, MD","1705 East Broadway, Columbia",38.9504108,-92.31315029999999,healthcare,Missouri
328,Audrain,"Mark Tungesvik, MD","1705 East Broadway, Columbia",38.9504108,-92.31315029999999,healthcare,Missouri
329,Audrain,Columbia Endoscopy Center,"208 Portland Street, Columbia",38.95423299999999,-92.28684919999999,healthcare,Missouri
330,Audrain,Landmark Hospital,"604 Old 63 North, Columbia",38.9580232,-92.3112855,healthcare,Missouri
331,Audrain,University Hospital-Acute Rhb,"1 Hospital Drive, Columbia",38.9387994,-92.3272353,healthcare,Missouri
332,Audrain,Children's Hospital,"1 Hospital Drive, Columbia",38.9381997,-92.3284649,healthcare,Missouri
333,Audrain,Surgery Center of Columbia,"305 North Keene Street #107, Columbia",38.9550518,-92.2916934,healthcare,Missouri
334,Audrain,Boone Hospital Center Comm,"1600 East Broadway, Columbia",38.94903,-92.315626,healthcare,Missouri
335,Barry,Barry County Museum,"15858 State Hwy 76, Cassville, MO 65625, United States",36.6655383,-93.85706060000001,tourist,Missouri
336,Barry,Jolly Mill Park,"31630 Jolly Mill Dr, Pierce City, MO 65723, United States",36.8961567,-94.0704437,tourist,Missouri
337,Barry,Red Oak II,"12275 Kafir Rd, Carthage, MO 64836, United States",37.2129118,-94.2779462,tourist,Missouri
338,Barry,Ripley's Believe It or Not!,"3326 W 76 Country Blvd, Branson, MO 65616, United States",36.637866,-93.2833588,tourist,Missouri
339,Barry,Bluff Dwellers Cave,"163 Cave Rd, Noel, MO 64854, United States",36.518802,-94.487099,tourist,Missouri
340,Barry,Silver Dollar City,"399 Silver Dollar City Pkwy, Branson, MO 65616, United States",36.6664162,-93.33814369999999,tourist,Missouri
341,Barry,Kimberling City Bridge,"Kimberling Inn at Table Rock Resort,, MO-13, Kimberling City, MO 65686, United States",36.6237666,-93.4206282,tourist,Missouri
342,Barry,Verona Corn Maze,"20701 Lawrence 2200, Aurora, MO 65605, United States",36.98084559999999,-93.6877871,tourist,Missouri
343,Barry,The Precious Moments Chapel,"4321 S Chapel Rd, Carthage, MO 64836, United States",37.11043890000001,-94.3469985,tourist,Missouri
344,Barry,Wilson's Creek National Battlefield,"Republic, MO 65738, United States",37.1159439,-93.4198323,tourist,Missouri
345,Barry,TITANIC Museum Attraction,"3235 W 76 Country Blvd, Branson, MO 65616, United States",36.63817239999999,-93.28007919999999,tourist,Missouri
346,Barry,Onyx Cave,"338 Onyx Cave Lane, Eureka Springs, AR 72632, United States",36.4419929,-93.6824378,tourist,Missouri
347,Barry,Promised Land Zoo,"32297 State Hwy 86, Eagle Rock, MO 65641, United States",36.5124167,-93.7140838,tourist,Missouri
348,Barry,Elephant Rocks State Park,"7390, 7406 MO-21, Belleview, MO 63623, United States",37.65448749999999,-90.6879919,tourist,Missouri
349,Barry,Smallin Civil War Cave,"3575 N Smallin Rd, Ozark, MO 65721, United States",37.0527829,-93.18761860000001,tourist,Missouri
350,Barry,Quigley's Castle,"274 Quigley Castle Rd, Eureka Springs, AR 72632, United States",36.3461675,-93.7560505,tourist,Missouri
351,Barry,Bigfoot Fun Park,"3608 W 76 Country Blvd, Branson, MO 65616, United States",36.6466686,-93.2884325,tourist,Missouri
352,Barry,Whee Hill,"699 Oak St, Carthage, MO 64836, United States",37.1764696,-94.3183486,tourist,Missouri
353,Barry,Grand Falls,"5685 Riverside Dr, Joplin, MO 64804, United States",37.0324341,-94.54205800000001,tourist,Missouri
354,Barry,Meramec Caverns,"1135 Hwy W, Sullivan, MO 63080, United States",38.241078,-91.091995,tourist,Missouri
355,Barry,Waffle House,"9700 NE Barry Rd, Kansas City, MO 64157, United States",39.2452269,-94.4597166,restaurant,Missouri
356,Barry,Red Apple Diner,"211 NW Barry Rd, Kansas City, MO 64155, United States",39.2458895,-94.5830572,restaurant,Missouri
357,Barry,Noodles and Company,"9140 NE Barry Rd, Kansas City, MO 64157, United States",39.2455402,-94.46634449999999,restaurant,Missouri
358,Barry,Asian Buffet,"511 NW Barry Rd, Kansas City, MO 64155, United States",39.2459245,-94.5879109,restaurant,Missouri
359,Barry,Olive Garden Italian Restaurant,"500 NW Barry Rd, Kansas City, MO 64155, United States",39.24691,-94.586687,restaurant,Missouri
360,Barry,54th Street Scratch Grill & Bar- Liberty Area,"9251 NE Barry Rd, Kansas City, MO 64157, United States",39.2439881,-94.4632798,restaurant,Missouri
361,Barry,On The Border Mexican Grill & Cantina - Barry Rd,"8340 NW Roanridge Rd., Kansas City, MO 64151, United States",39.2462392,-94.65637389999999,restaurant,Missouri
362,Barry,The Big Biscuit,"6332 NW Barry Rd, Kansas City, MO 64154, United States",39.2483333,-94.65333330000001,restaurant,Missouri
363,Barry,Ixtapa Fine Mexican Cuisine,"7103 NW Barry Rd, Kansas City, MO 64153, United States",39.2463238,-94.6621964,restaurant,Missouri
364,Barry,Red Lobster,"450 NW Barry Rd, Kansas City, MO 64155, United States",39.246737,-94.58528199999999,restaurant,Missouri
365,Barry,CHOPSTIX CHINESE CUISINE & SUSHI,"6003 NW Barry Rd, Kansas City, MO 64154, United States",39.2462925,-94.6492123,restaurant,Missouri
366,Barry,Rainbow Restaurant,"7101 NW Barry Rd, Kansas City, MO 64153, United States",39.2462957,-94.662092,restaurant,Missouri
367,Barry,Minsky's Pizza,"7007 NW Barry Rd, Kansas City, MO 64153, United States",39.2464407,-94.66124239999999,restaurant,Missouri
368,Barry,Old Wok Barry Rd,"200 NE Barry Rd, Kansas City, MO 64155, United States",39.2469645,-94.5784431,restaurant,Missouri
369,Barry,Whataburger,"600 NW Barry Rd, Kansas City, MO 64155, United States",39.246726,-94.5882312,restaurant,Missouri
370,Barry,Chili's Grill & Bar,"9600 NE Barry Rd, Kansas City, MO 64157, United States",39.2453547,-94.4606835,restaurant,Missouri
371,Barry,Tokyo Japanese Steak House,"7 NW Barry Rd, Kansas City, MO 64155, United States",39.2458108,-94.5814068,restaurant,Missouri
372,Barry,Taco Bell,"430 NE Barry Rd, Kansas City, MO 64155, United States",39.2467675,-94.5743181,restaurant,Missouri
373,Barry,Steak 'n Shake,"9500 NE Barry Rd, Kansas City, MO 64157, United States",39.2454676,-94.4622302,restaurant,Missouri
374,Barry,Freddy's Frozen Custard & Steakburgers,"9800 NE Barry Rd, Kansas City, MO 64157, United States",39.245306,-94.4587315,restaurant,Missouri
375,Barry,Saint Luke's North Hospital-Barry Road,"5830 NW Barry Rd, Kansas City, MO 64154, United States",39.24887,,heathcare,Missouri
376,Barry,Mercy Hospital Cassville,"94 Main St, Cassville, MO 65625, United States",36.6747396,,heathcare,Missouri
377,Barry,Perry County Memorial Hospital,"434 N West St, Perryville, MO 63775, United States",37.7322447,,heathcare,Missouri
378,Barry,Saint Luke's Hospital of Kansas City,"4401 Wornall Rd, Kansas City, MO 64111, United States",39.0486683,,heathcare,Missouri
379,Barry,Belton Regional Medical Center,"17065 U. S. Hwy 71, Belton, MO 64012, United States",38.8159187,,heathcare,Missouri
380,Barry,Cox Barton County Hospital,"29 NW 1st Ln, Lamar, MO 64759, United States",37.50568610000001,,heathcare,Missouri
381,Barry,Barnes-Jewish Hospital,"One Barnes Jewish Hospital Plaza, St. Louis, MO 63110, United States",38.63525,,heathcare,Missouri
382,Barry,Cass Regional Medical Center,"2800 Rock Haven Rd, Harrisonville, MO 64701, United States",38.6647764,,heathcare,Missouri
383,Barry,Cox Monett Hospital,"1000 US-60, Monett, MO 65708, United States",36.9154444,,heathcare,Missouri
384,Barry,Wright Memorial Hospital,"191 Iowa Blvd, Trenton, MO 64683, United States",40.0675981,,heathcare,Missouri
385,Barry,Missouri Baptist Healthcare,"3844 Lindbergh Blvd Suite 130, St. Louis, MO 63127, United States",38.5485695,,heathcare,Missouri
386,Barry,University Health Lakewood Medical Center,"7900 Lee's Summit Rd, Kansas City, MO 64139, United States",38.9750259,,heathcare,Missouri
387,Barry,St. Luke's Hospital,"232 S Woods Mill Rd, Chesterfield, MO 63017, United States",38.6512755,,heathcare,Missouri
388,Barry,Southeast Hospital,"1701 Lacey St, Cape Girardeau, MO 63701, United States",37.3110319,,heathcare,Missouri
389,Barry,Cox North Hospital,"1423 N Jefferson Ave, Springfield, MO 65802, United States",37.2248227,,heathcare,Missouri
390,Barry,Saint Luke's South Hospital,"12300 Metcalf Ave, Overland Park, KS 66213, United States",38.9040629,,heathcare,Missouri
391,Barry,Mercy Hospital Springfield,"1235 E Cherokee St, Springfield, MO 65804, United States",37.1781178,,heathcare,Missouri
392,Barry,Saint Luke's Hospital Crittenton Children's Center,"10918 Elm Ave, Kansas City, MO 64134, United States",38.9241603,,heathcare,Missouri
393,Barry,Kindred Hospital Northland,"500 NW 68th St, Kansas City, MO 64118, United States",39.2194532,,heathcare,Missouri
394,Barry,Children's Mercy Northland Clinic,"501 NW Barry Rd, Kansas City, MO 64155, United States",39.244206,,heathcare,Missouri
395,Barry,Bonefish Grill,"6334 North Lucerne Avenue, Kansas City",39.2093382,-94.65334829999999,restaurant,Missouri
396,Barry,Golden Corral Buffet & Grill,"8800 Northwest Skyview Avenue, Kansas City",39.2553379,-94.65034399999999,restaurant,Missouri
397,Barry,Hereford House - Zona Rosa,"8661 North Stoddard Avenue, Kansas City",39.250943,-94.6644443,restaurant,Missouri
398,Barry,"Smokehouse Barbecue - Kansas City, MO (Zona Rosa)","8451 Northwest Prairie View Road, Kansas City",39.24816,-94.66113999999999,restaurant,Missouri
399,Barry,Em Chamas Brazilian Grill,"6101 Northwest 63rd Terrace, Kansas City",39.20888219999999,-94.6514754,restaurant,Missouri
400,Barry,Stroud's Oak Ridge Manor,"5410 Northeast Oak Ridge Drive, Kansas City",39.1947278,-94.5129226,restaurant,Missouri
401,Barry,Olive Garden Italian Restaurant,"500 Northwest Barry Road, Kansas City",39.24691,-94.586687,restaurant,Missouri
402,Barry,Corner Cafe Riverside,"4541 Northwest Gateway Avenue, Riverside",39.17764999999999,-94.61234999999999,restaurant,Missouri
403,Barry,Dunkin',"9561 North McGee Street, Kansas City",39.2657866,-94.57626309999999,restaurant,Missouri
404,Barry,Longboards Wraps & Bowls,"6269 North Oak Trafficway, Kansas City",39.2077275,-94.5755178,restaurant,Missouri
405,Barry,"Brass Rail Sports Bar, Restaurant & Pool Hall","4940 Northeast 81st Street, Kansas City",39.2412643,-94.5220794,restaurant,Missouri
406,Barry,Buffalo Wild Wings,"8441 Northwest Prairie View Road, Kansas City",39.2479825,-94.6600576,restaurant,Missouri
407,Barry,Panera Bread,"311 Northeast Englewood Road, Kansas City",39.195324,-94.577807,restaurant,Missouri
408,Barry,Subway,"612 Northwest Englewood Road, Kansas City",39.19638109999999,-94.5881143,restaurant,Missouri
409,Barry,Subway,"7207 North Highway M1, Kansas City",39.2253692,-94.5460871,restaurant,Missouri
410,Barry,Subway,"9223 North Oak Trafficway, Kansas City",39.26216549999999,-94.5739742,restaurant,Missouri
411,Barry,Swagat Fine Indian Restaurant,"7407 Northwest 87th Street, Kansas City",39.251455,-94.665938,restaurant,Missouri
412,Barry,Subway,"6057 Northeast Antioch Road, Gladstone",39.2039129,-94.54777299999999,restaurant,Missouri
413,Barry,Subway,"8016 North Brighton Avenue, Kansas City",39.23934819999999,-94.52141309999999,restaurant,Missouri
414,Barry,Pizza Street,"307 Northeast Englewood Road, Kansas City",39.19370320000001,-94.5784185,restaurant,Missouri
415,Barry,EDGE Gymnastics,"5050 Northwest Gateway Avenue, Riverside",39.1844558,-94.61384579999999,gym,Missouri
416,Barry,Genesis Health Clubs - Vivion,"1141 Northeast Vivion Road, Kansas City",39.1805728,-94.5654247,gym,Missouri
417,Barry,Baer Swords School of Western Martial Arts,"1520 Northwest Vivion Road Suite F, Kansas City",39.18362689999999,-94.5997708,gym,Missouri
418,Barry,Planet Fitness,"2415 Northeast Vivion Road, Kansas City",39.1847106,-94.5500489,gym,Missouri
419,Barry,9Round Gladstone,"5765 Northeast Antioch Road, Gladstone",39.1986216,-94.54777969999999,gym,Missouri
420,Barry,The Wheel Yoga,"Currently Virtual, 2813 Northeast Kendallwood Parkway A, Gladstone",39.19913479999999,-94.54765309999999,gym,Missouri
421,Barry,PRIDE Martial Arts - Gladstone,"6927 North Oak Trafficway, Kansas City",39.2207166,-94.5757773,gym,Missouri
422,Barry,NKC CrossFit,"727 Northeast 76th Street, Gladstone",39.2315411,-94.57156100000002,gym,Missouri
423,Barry,InBliss Yoga,"5106 Northwest Waukomis Drive, Kansas City",39.186876,-94.6067276,gym,Missouri
424,Barry,Club North Volleyball,"5110 Northwest Waukomis Drive, Kansas City",39.1867408,-94.6067657,gym,Missouri
425,Barry,Self-Defense Global KC,"1522C Northwest Vivion Road, Kansas City",39.1826111,-94.60025499999999,gym,Missouri
426,Barry,Fitness Centers,"North Oak Trafficway, Gladstone",39.20469859999999,-94.57631909999999,gym,Missouri
427,Barry,Eastbrook Park,"1306-1460 Northwest Vivion Road, Kansas City",39.1837702,-94.5980622,gym,Missouri
428,Barry,MVP Fitness - Personal Training & Pain Relief,"1408 Northwest Vivion Road, Kansas City",39.1836843,-94.59839629999999,gym,Missouri
429,Barry,Wildfire Brazilian Jiu-Jitsu,"1410 Northwest Vivion Road, Kansas City",39.1833127,-94.5982996,gym,Missouri
430,Barry,Leggetts Gym,"5110 Northwest Waukomis Drive, Kansas City",39.1870743,-94.6070408,gym,Missouri
431,Barry,Club North Volleyball Gym,"5108 & 5110 Northwest Waukomis Drive, Kansas City",39.18590059999999,-94.606583,gym,Missouri
432,Barry,Metro KC Fitness - Briarcliff,"4157 North Mulberry Drive, Kansas City",39.1698177,-94.59796899999999,gym,Missouri
433,Barry,Gladstone Community Center,"6901 North Holmes Street, Gladstone",39.2204925,-94.57088499999999,gym,Missouri
434,Barry,Lotus Care KC - Yoga Therapy & Wellness Studio,"7001 North Locust Street Suite C101, Gladstone",39.2213995,-94.5746137,gym,Missouri
435,Barry,Children's Mercy Northland Clinic,"501 Northwest Barry Road, Kansas City",39.244206,-94.586944,healthcare,Missouri
436,Barry,Planned Parenthood - Northland Center,"2900 Northeast 60th Street Suite 100 Suite 100, Gladstone",39.20342369999999,-94.5450887,healthcare,Missouri
437,Barry,Wiles Eye Center,"211 Northeast 54th Street #202, Kansas City",39.19153269999999,-94.5787892,healthcare,Missouri
438,Barry,Stephen B. Wiles,"211 Northeast 54th Street #202, Kansas City",39.1915506,-94.57877710000001,healthcare,Missouri
439,Barry,Meritas Health Psychiatry,"211 Northeast 54th Street #201, Kansas City",39.1915668,-94.5788073,healthcare,Missouri
440,Barry,Kindred Hospital Northland,"500 Northwest 68th Street, Kansas City",39.2194532,-94.5872855,healthcare,Missouri
441,Barry,Hy-Vee Pharmacy,"7117 North Prospect Avenue, Gladstone",39.22310299999999,-94.5469,healthcare,Missouri
442,Barry,"Meritas Health Briarcliff, 2nd Floor","5400 North Oak Trafficway #200, Kansas City",39.1925447,-94.5770499,healthcare,Missouri
443,Barry,Metro Infusion Center,"200 Northeast 54th Street #111, Kansas City",39.1926679,-94.5788596,healthcare,Missouri
444,Barry,Antioch plaza,"5601 Northeast Antioch Road, Kansas City",39.19563059999999,-94.5476443,healthcare,Missouri
445,Barton,Harry S Truman Birthplace State Historic Site,"1009 Truman St, Lamar, MO 64759, United States",37.4943758,-94.2715772,tourist,Missouri
446,Barton,Ripley's Believe It or Not!,"3326 W 76 Country Blvd, Branson, MO 65616, United States",36.637866,-93.2833588,tourist,Missouri
447,Barton,Prairie State Park,"128 NW 150th Ln, Mindenmines, MO 64769, United States",37.5239662,-94.5676009,tourist,Missouri
448,Barton,Silver Dollar City,"399 Silver Dollar City Pkwy, Branson, MO 65616, United States",36.6664162,-93.33814369999999,tourist,Missouri
449,Barton,Wilson's Creek National Battlefield,"Republic, MO 65738, United States",37.1159439,-93.4198323,tourist,Missouri
450,Barton,Elephant Rocks State Park,"7390, 7406 MO-21, Belleview, MO 63623, United States",37.65448749999999,-90.6879919,tourist,Missouri
451,Barton,Hollywood Wax Museum,"3030 W 76 Country Blvd A, Branson, MO 65616, United States",36.6376832,-93.277018,tourist,Missouri
452,Barton,Stockton State Park,"19100 MO-215, Dadeville, MO 65635, United States",37.6065208,-93.7489705,tourist,Missouri
453,Barton,Lamar City Park,"1909 Walnut St, Lamar, MO 64759, United States",37.4844152,-94.2826616,tourist,Missouri
454,Barton,Ha Ha Tonka State Park,"1491 Missouri D, Camdenton, MO 65020, United States",37.9669648,-92.7604189,tourist,Missouri
455,Barton,Radio Springs Park,"1100 S College St, Nevada, MO 64772, United States",37.8267022,-94.37128779999999,tourist,Missouri
456,Barton,Meramec Caverns,"1135 Hwy W, Sullivan, MO 63080, United States",38.241078,-91.091995,tourist,Missouri
457,Barton,Shawnee Trail Conservation Area,"160 SW 160th Ln, Mindenmines, MO 64769, United States",37.44216979999999,-94.5796974,tourist,Missouri
458,Barton,Marmaduke Park,"600 W Highland Ave, Nevada, MO 64772, United States",37.8615053,-94.36845679999999,tourist,Missouri
459,Barton,El Dorado Springs City Park,"127 W Spring St, El Dorado Springs, MO 64744, United States",37.87633659999999,-94.02277400000001,tourist,Missouri
460,Barton,Greenfield City Park,"Greenfield, MO 65661, United States",37.4097554,-93.8447661,tourist,Missouri
461,Barton,Onondaga Cave State Park,"7556 Missouri H, Leasburg, MO 65535, United States",38.0619594,-91.23617139999999,tourist,Missouri
462,Barton,Fort Scott National Historic Site,"199 Old Fort Blvd, Fort Scott, KS 66701, United States",37.8434508,-94.7042879,tourist,Missouri
463,Barton,Jesse James Wax Museum,"I-44, Stanton, MO 63079, United States",38.2727253,-91.1071903,tourist,Missouri
464,Barton,Worlds of Fun,"4545 Worlds of Fun Ave, Kansas City, MO 64161, United States",39.1765826,-94.48624799999999,tourist,Missouri
465,Barton,El Caballo De Oro,"1201 Parry St, Lamar, MO 64759, United States",37.4927443,-94.27013079999999,restaurant,Missouri
466,Barton,Tractor's Bbq And Grill,"1008 E 12th St, Lamar, MO 64759, United States",37.4932327,-94.2642769,restaurant,Missouri
467,Barton,Taco Palace,"810 12th St W, Lamar, MO 64759, United States",37.49384149999999,-94.2865068,restaurant,Missouri
468,Barton,Mother Tucker’s Pizza,"2 SE 20th Rd, Lamar, MO 64759, United States",37.4720687,-94.2988815,restaurant,Missouri
469,Barton,Bamboo House,"201 E 12th St, Lamar, MO 64759, United States",37.4929376,-94.2779616,restaurant,Missouri
470,Barton,Cooky's Cafe,"519 Main St, Golden City, MO 64748, United States",37.3929474,-94.0938779,restaurant,Missouri
471,Barton,Amy's bus stop,"204 W Kneeland St, Liberal, MO 64762, United States",37.5617351,-94.52148869999999,restaurant,Missouri
472,Barton,Sonic Drive-In,"37 US-160, Lamar, MO 64759, United States",37.4932441,-94.29480740000001,restaurant,Missouri
473,Barton,Taco Bell,"21 US-160, Lamar, MO 64759, United States",37.49332649999999,-94.296348,restaurant,Missouri
474,Barton,Dairy Queen Grill & Chill,"37a SW 1st Ln, Lamar, MO 64759, United States",37.4956671,-94.30164099999999,restaurant,Missouri
475,Barton,Pizza Hut,"23 US-160, Lamar, MO 64759, United States",37.4933857,-94.2958421,restaurant,Missouri
476,Barton,McDonald's,"11 E 160 Hwy, Lamar, MO 64759, United States",37.4932506,-94.29768879999999,restaurant,Missouri
477,Barton,Subway,"25 US-160, Lamar, MO 64759, United States",37.4932045,-94.2941772,restaurant,Missouri
478,Barton,Nom Nom Café,"128 Cherry St, Bronaugh, MO 64728, United States",37.6899377,-94.4688103,restaurant,Missouri
479,Barton,Peggy's Own Family Restaurant,"258-416 N 4th St, Jasper, MO 64755, United States",37.3400576,-94.2976176,restaurant,Missouri
480,Barton,Gebhardt's Chicken Dinners,"124 N 260th St, Mulberry, KS 66756, United States",37.5169093,-94.62896239999999,restaurant,Missouri
481,Barton,Judy's Cafe & Station,"403 N 4th St, Jasper, MO 64755, United States",37.3399986,-94.2983244,restaurant,Missouri
482,Barton,Mc Kay's Dari Creme,"200 S 4th St, Jasper, MO 64755, United States",37.33481450000001,-94.29805359999999,restaurant,Missouri
483,Barton,Wooden Nickel Tavern,"100 Third St, Purcell, MO 64857, United States",37.2425108,-94.4359369,restaurant,Missouri
484,Barton,Grand Avenue Pizza,"101 W Grand Ave, Jasper, MO 64755, United States",37.3363073,-94.30227389999999,restaurant,Missouri
485,Barton,Cox Barton County Hospital,"29 NW 1st Ln, Lamar, MO 64759, United States",37.50568610000001,,heathcare,Missouri
486,Barton,Subway,"25 U.S. 160, Lamar",37.4932045,-94.2941772,restaurant,Missouri
487,Barton,Tractor's Bbq And Grill,"1008 East 12th Street, Lamar",37.4932388,-94.26446370000001,restaurant,Missouri
488,Barton,Pizza Hut,"23 U.S. 160, Lamar",37.4933857,-94.2958421,restaurant,Missouri
489,Barton,McDonald's,"11 E 160 Hwy, Lamar",37.49325059999999,-94.29768879999999,restaurant,Missouri
490,Barton,Dairy Queen Grill & Chill,"37a Southwest 1st Lane, Lamar",37.4956671,-94.30164099999999,restaurant,Missouri
491,Barton,Lamar Travel Plaza,"43 Southwest 1st Lane, Lamar",37.4952517,-94.30155309999999,restaurant,Missouri
492,Barton,Taco Bell,"21 U.S. 160, Lamar",37.49332649999999,-94.296348,restaurant,Missouri
493,Barton,BEEF NIERKY,United States,37.4929577,-94.29768729999999,restaurant,Missouri
494,Barton,Sonic Drive-In,"37 U.S. 160, Lamar",37.4932441,-94.29480740000001,restaurant,Missouri
495,Barton,Taco Palace,"810 12th Street West, Lamar",37.49387979999999,-94.2865905,restaurant,Missouri
496,Barton,Bamboo House,"201 East 12th Street, Lamar",37.4929426,-94.2781183,restaurant,Missouri
497,Barton,El Caballo De Oro,"1201 Parry Street, Lamar",37.4927416,-94.27011449999999,restaurant,Missouri
498,Barton,Mother Tucker’s Pizza,"2 Southeast 20th Road, Lamar",37.4720687,-94.2988815,restaurant,Missouri
499,Barton,CrossRoads Fitness Lamar,"1105 Cherry Street, Lamar",37.4940786,-94.27951449999999,gym,Missouri
500,Barton,Barton County Strength Club,"607 West 13th Street, Lamar",37.49359889999999,-94.2849044,gym,Missouri
501,Barton,Hydra Fitness,"100 West 10th Street, Lamar",37.4958219,-94.2762091,gym,Missouri
502,Barton,Cox Barton County Hospital,"29 Northwest 1st Lane, Lamar",37.5056861,-94.3008598,healthcare,Missouri
503,Barton,Access Family Care,"210 West 10th Street, Lamar",37.4959542,-94.2788916,healthcare,Missouri
504,Barton,Truman Healthcare & Rehabilitation Center,"298 West 1st Street, Lamar",37.5086462,-94.2782033,healthcare,Missouri
505,Barton,Cox Barton Hospital,"29 Northwest 1st Lane, Lamar",37.5056091,-94.30074289999999,healthcare,Missouri
506,Barton,Cox Barton County Therapy Services,"29 Northwest 1st Lane, Lamar",37.5057575,-94.3009368,healthcare,Missouri
507,Bates,Bates County Museum,"802 Elks Dr, Butler, MO 64730, United States",38.2690324,-94.35077869999999,tourist,Missouri
508,Bates,Battle Of Island Mound State Historic Site,"NW County Raod 1002, Butler, MO 64730, United States",38.2366238,-94.4398623,tourist,Missouri
509,Bates,Frontier Village,"Adrian, MO 64720, United States",38.3914649,-94.33821379999999,tourist,Missouri
510,Bates,Elephant Rocks State Park,"7390, 7406 MO-21, Belleview, MO 63623, United States",37.65448749999999,-90.6879919,tourist,Missouri
511,Bates,Osage Village State Historic Site,"Farm road 2300, Walker, MO 64790, United States",37.9821094,-94.2070876,tourist,Missouri
512,Bates,Wilson's Creek National Battlefield,"Republic, MO 65738, United States",37.1159439,-93.4198323,tourist,Missouri
513,Bates,Meramec Caverns,"1135 Hwy W, Sullivan, MO 63080, United States",38.241078,-91.091995,tourist,Missouri
514,Bates,Ha Ha Tonka State Park,"1491 Missouri D, Camdenton, MO 65020, United States",37.9669648,-92.7604189,tourist,Missouri
515,Bates,Ripley's Believe It or Not!,"3326 W 76 Country Blvd, Branson, MO 65616, United States",36.637866,-93.2833588,tourist,Missouri
516,Bates,Settle's Ford Conservation Area,"37111 E 360 1st street, Garden City, MO 64747, United States",38.4533746,-94.140052,tourist,Missouri
517,Bates,Silver Dollar City,"399 Silver Dollar City Pkwy, Branson, MO 65616, United States",36.6664162,-93.33814369999999,tourist,Missouri
518,Bates,Peabody Conservation Area,"5400 County Road A, Rich Hill, MO 64779, United States",38.0992102,-94.44316099999999,tourist,Missouri
519,Bates,The Gateway Arch,"Gateway Arch, St. Louis, MO 63102, United States",38.6251269,-90.1867504,tourist,Missouri
520,Bates,Hollywood Wax Museum,"3030 W 76 Country Blvd A, Branson, MO 65616, United States",36.6376832,-93.277018,tourist,Missouri
521,Bates,World's Largest Pecan,"119 W Broadway St, Brunswick, MO 65236, United States",39.42364750000001,-93.13095109999999,tourist,Missouri
522,Bates,Henry County Museum,"203 W Franklin St, Clinton, MO 64735, United States",38.3710589,-93.77847279999999,tourist,Missouri
523,Bates,Stockton State Park,"19100 MO-215, Dadeville, MO 65635, United States",37.6065208,-93.7489705,tourist,Missouri
524,Bates,Onondaga Cave State Park,"7556 Missouri H, Leasburg, MO 65535, United States",38.0619594,-91.23617139999999,tourist,Missouri
525,Bates,Jesse James Wax Museum,"I-44, Stanton, MO 63079, United States",38.2727253,-91.1071903,tourist,Missouri
526,Bates,Marais des Cygnes Massacre State Historic Site,"26426 E 1700th Rd, Pleasanton, KS 66075, United States",38.2817795,-94.6211477,tourist,Missouri
527,Bates,Bates City BBQ,"201 Market St, Bates City, MO 64011, United States",39.006603,-94.07205499999999,restaurant,Missouri
528,Bates,Chester's Chicken On the Run,"500 N D Highway, Bates City, MO 64011, United States",39.0126714,-94.0678326,restaurant,Missouri
529,Bates,Godfather's Pizza Express,"500 North D Highway, Bates City, MO 64011, United States",39.0131576,-94.06824150000001,restaurant,Missouri
530,Bates,Tu Casa Mexican Bar & Grill,"27 W Dakota St, Butler, MO 64730, United States",38.2572598,-94.3329906,restaurant,Missouri
531,Bates,Short Street Tavern,"104 W 4th St, Montrose, MO 64770, United States",38.257647,-93.98185670000001,restaurant,Missouri
532,Bates,The Boathouse,"300 N 14th St #2146, Rich Hill, MO 64779, United States",38.0984157,-94.35173209999999,restaurant,Missouri
533,Bates,The Alley Tavern,"10 W Chestnut St, Butler, MO 64730, United States",38.2590814,-94.3322685,restaurant,Missouri
534,Bates,Quick Dine III,"404 N Orange St, Butler, MO 64730, United States",38.2626135,-94.343426,restaurant,Missouri
535,Bates,Subway,"500 N. D Highway, Bates City, MO 64011, United States",39.0127941,-94.0680172,restaurant,Missouri
536,Bates,Jay's Shack,"1008 W Fort Scott St, Butler, MO 64730, United States",38.25733719999999,-94.3506192,restaurant,Missouri
537,Bates,MoKan Cafe,"7133 NE Business 49 Loop, Butler, MO 64730, United States",38.3241223,-94.34667689999999,restaurant,Missouri
538,Bates,PT's,"501 S Broadway, Oak Grove, MO 64075, United States",39.0119067,-94.1284756,restaurant,Missouri
539,Bates,Sonic Drive-In,"1014 W Fort Scott St, Butler, MO 64730, United States",38.2572211,-94.3515858,restaurant,Missouri
540,Bates,"That's It The Coup, (The Coop)","706 W Pine St, Butler, MO 64730, United States",38.2605023,-94.3440275,restaurant,Missouri
541,Bates,Taco Bell,"1113 W Fort Scott St, Butler, MO 64730, United States",38.2563842,-94.3555534,restaurant,Missouri
542,Bates,New China Buffet,"517 N Orange St, Butler, MO 64730, United States",38.2636897,-94.3427284,restaurant,Missouri
543,Bates,Dry Dock Restaurant Bar Motel,"18340 Monroe Rd #489, Stoutsville, MO 65283, United States",39.4578645,-91.8320335,restaurant,Missouri
544,Bates,Gobblers Roost,"24327 E Old Town Rd, Nevada, MO 64772, United States",37.8349237,-94.192376,restaurant,Missouri
545,Bates,Square 109 Restaurant & Bar,"109 S Washington St, Clinton, MO 64735, United States",38.3703971,-93.77797609999999,restaurant,Missouri
546,Bates,Royal Kebab Persian Cuisine,"3611 Bates St, St. Louis, MO 63116, United States",38.568875,-90.25474439999999,restaurant,Missouri
547,Bates,Bates County Memorial Hospital,"615 W Nursery St, Butler, MO 64730, United States",38.2487991,,heathcare,Missouri
548,Bates,Ellett Memorial Hospital,"610 N Ohio St, Appleton City, MO 64724, United States",38.19277659999999,,heathcare,Missouri
549,Bates,"Virginia Kovack, MNT","615 W Nursery St, Butler, MO 64730, United States",38.248807,,heathcare,Missouri
550,Bates,Nursery Street Family Care Clinic,"Adrian, MO 64720, United States",38.4082807,,heathcare,Missouri
551,Bates,Golden Valley Memorial Healthcare,"1600 N 2nd St, Clinton, MO 64735, United States",38.3897485,,heathcare,Missouri
552,Bates,Home,"902 S 6th St Terrace, Clinton, MO 64735, United States",38.3612685,,heathcare,Missouri
553,Bates,Subway,"1803 East Ohio Street, Clinton",38.3665762,-93.74821969999999,restaurant,Missouri
554,Bates,Applebee's Grill + Bar,"700 Kansas Avenue, Clinton",38.362883,-93.75275359999999,restaurant,Missouri
555,Bates,Dairy Queen,"107 East Rives Road, Clinton",38.384898,-93.7735301,restaurant,Missouri
556,Bates,Clinton Country Club,"225 Northeast 100 Road, Clinton",38.3821182,-93.71311949999999,restaurant,Missouri
557,Bates,Papa Murphy's | Take 'N' Bake Pizza,"1735 East Ohio Street, Clinton",38.3670261,-93.7482321,restaurant,Missouri
558,Bates,Shawnee Mound BBQ,"112 Rives Road, Clinton",38.385299,-93.775024,restaurant,Missouri
559,Bates,Primitive Olde Crow & Winery,"32 Southeast Highway Aa, Clinton",38.36067889999999,-93.7146968,restaurant,Missouri
560,Bates,Ben Franklin Bistro,"106 South Main Street, Clinton",38.370421,-93.775873,restaurant,Missouri
561,Bates,McDonald's,"1607 East Ohio Street, Clinton",38.3666631,-93.74992669999999,restaurant,Missouri
562,Bates,Pizza Glen,"205 East Rives Road, Clinton",38.38402069999999,-93.77221519999999,restaurant,Missouri
563,Bates,Sonic Drive-In,"1014 East Ohio Street, Clinton",38.36587859999999,-93.75672180000001,restaurant,Missouri
564,Bates,Pizza Hut,"1501 North 2nd Street, Clinton",38.3870044,-93.7717947,restaurant,Missouri
565,Bates,Wendy's,"1701 East Ohio Street, Clinton",38.36653779999999,-93.7492628,restaurant,Missouri
566,Bates,Hardee's,"1616 East Ohio Street, Clinton",38.3657714,-93.7497822,restaurant,Missouri
567,Bates,Asianfy Hibachi - Japanese & Asian Fusion,"805 East Ohio Street, Clinton",38.36676779999999,-93.76233669999999,restaurant,Missouri
568,Bates,Peniku Japanese Hibachi Grill,"1107 South 2nd Street, Clinton",38.35808790000001,-93.7748404,restaurant,Missouri
569,Bates,Arby's,"514 Pawnee Avenue, Clinton",38.36487760000001,-93.75439779999999,restaurant,Missouri
570,Bates,El Camino Real,"417 Kansas Avenue, Clinton",38.364672,-93.75381800000001,restaurant,Missouri
571,Bates,Burger King,"1303 East Ohio Street, Clinton",38.3666,-93.753788,restaurant,Missouri
572,Bates,Serrano's A Family Mexican Restaurant,"114 West Jefferson Street, Clinton",38.3693434,-93.77688649999999,restaurant,Missouri
573,Bates,Simply Move Yoga,"1731 East Ohio Street, Clinton",38.36680319999999,-93.74845719999999,gym,Missouri
574,Bates,Bear Down Fitness,"219 South Main Street, Clinton",38.36861409999999,-93.7764878,gym,Missouri
575,Bates,Everyday Fitness 24 Hour Gym & Wellness Center,"221 East Douglas Street, Clinton",38.3809741,-93.77239349999999,gym,Missouri
576,Bates,Clinton Community Center,"1004 East Sedalia Avenue, Clinton",38.3801002,-93.7562942,gym,Missouri
577,Bates,TR Fitness,"743 East Gaines Drive, Clinton",38.38886509999999,-93.7627737,gym,Missouri
578,Bates,BLUSH Boot Camp,"1832 East Ohio Street Suite 8, Clinton",38.3638566,-93.7479922,gym,Missouri
579,Bates,DaVita Kansas Avenue Dialysis,"604 Kansas Avenue, Clinton",38.36337599999999,-93.75275359999999,healthcare,Missouri
580,Bates,Golden Valley Memorial Healthcare,"1600 North 2nd Street, Clinton",38.3897485,-93.7689336,healthcare,Missouri
581,Bates,Home,"902 South 6th Street Terrace, Clinton",38.3612685,-93.7666237,healthcare,Missouri
582,Bates,Golden Valley Memorial Healthcare,"1602 North 2nd Street, Clinton",38.38991289999999,-93.76914409999999,healthcare,Missouri
583,Benton,Bluff Dwellers Cave,"163 Cave Rd, Noel, MO 64854, United States",36.518802,-94.487099,tourist,Missouri
584,Benton,Thomas Hart Benton Home and Studio State Historic Site,"3616 Belleview Ave, Kansas City, MO 64111, United States",39.062077,-94.59783399999999,tourist,Missouri
585,Benton,Bollinger Mill State Historic Site,"113 Bollinger Mill Rd, Burfordville, MO 63739, United States",37.368119,-89.80305,tourist,Missouri
586,Benton,Meramec Caverns,"1135 Hwy W, Sullivan, MO 63080, United States",38.241078,-91.091995,tourist,Missouri
587,Benton,Benton County Museum,"1660 Hilltop Dr, Warsaw, MO 65355, United States",38.2556879,-93.3684444,tourist,Missouri
588,Benton,The Space Museum and Grissom Center,"118 E School St, Bonne Terre, MO 63628, United States",37.9221442,-90.5517663,tourist,Missouri
589,Benton,Trail of Tears State Park,"429 Moccasin Springs Rd, Jackson, MO 63755, United States",37.4388065,-89.481025,tourist,Missouri
590,Benton,Mingo National Wildlife Refuge,"24279 MO-51, Puxico, MO 63960, United States",36.969508,-90.150683,tourist,Missouri
591,Benton,The Concourse Park,"200 Benton Blvd, Kansas City, MO 64123, United States",39.1125,-94.5447222,tourist,Missouri
592,Benton,Historic Fort D,"920 Fort St, Cape Girardeau, MO 63701, United States",37.2908335,-89.5262498,tourist,Missouri
593,Benton,The Colonnade,"The Colonnade @ Concourse Park, 200 Benton Blvd, Kansas City, MO 64123, United States",39.11349149999999,-94.54605959999999,tourist,Missouri
594,Benton,Crisp Museum,"518 S Fountain St, Cape Girardeau, MO 63703, United States",37.2963186,-89.522351,tourist,Missouri
595,Benton,Museum of Westward Expansion,"11 N 4th St, St. Louis, MO 63102, United States",38.6256726,-90.1892685,tourist,Missouri
596,Benton,World's Largest Fountain Cup,"425 S Mt Auburn Rd, Cape Girardeau, MO 63703, United States",37.2905442,-89.5717366,tourist,Missouri
597,Benton,Sam A. Baker State Park,"5580 MO-143, Patterson, MO 63956, United States",37.2597334,-90.52499519999999,tourist,Missouri
598,Benton,Benton Park,"707 S Crane St, Independence, MO 64050, United States",39.084993,-94.4025279,tourist,Missouri
599,Benton,Maintz Wildlife Preserve,"Oak Ridge, MO 63769, United States",37.4813023,-89.796633,tourist,Missouri
600,Benton,Chatillon-DeMenil Mansion,"3352 Demenil Pl, St. Louis, MO 63118, United States",38.5923376,-90.2162115,tourist,Missouri
601,Benton,Capaha Park,"1400 Broadway St, Cape Girardeau, MO 63701, United States",37.3128567,-89.5372867,tourist,Missouri
602,Benton,World's Largest Pecan,"119 W Broadway St, Brunswick, MO 65236, United States",39.42364750000001,-93.13095109999999,tourist,Missouri
603,Benton,Yvonne’s,"25 Tywappity St, Benton, MO 63736, United States",37.0961291,-89.56362089999999,restaurant,Missouri
604,Benton,"The Pigs Hiney, formerly Hiney Hut LLC","2974 State Hwy PP, Scott City, MO 63780, United States",37.154171,-89.47373549999999,restaurant,Missouri
605,Benton,Kelso Corner Grill,"151 N Messmer St, Kelso, MO 63758, United States",37.19081,-89.54966,restaurant,Missouri
606,Benton,Kitchen 61,"138 US-61, Kelso, MO 63758, United States",37.1935437,-89.5501144,restaurant,Missouri
607,Benton,Las Brisas Authentic Mexican Restaurant,"2406 Main St, Scott City, MO 63780, United States",37.2146524,-89.5400074,restaurant,Missouri
608,Benton,Subway,"6488 MO-77, Benton, MO 63736, United States",37.0920588,-89.54460840000002,restaurant,Missouri
609,Benton,McDonald's,"6415 MO-77, Benton, MO 63736, United States",37.0895851,-89.54166409999999,restaurant,Missouri
610,Benton,Chaffee Drive In,"200 S Main St, Chaffee, MO 63740, United States",37.1788919,-89.655554,restaurant,Missouri
611,Benton,The hay barn bar and grill,"25500 MO-91, Bell City, MO 63735, United States",37.026736,-89.8124161,restaurant,Missouri
612,Benton,Shot In the Dark BBQ,"512 Washington St, Oran, MO 63771, United States",37.081546,-89.6513279,restaurant,Missouri
613,Benton,Red Kingdom Grill and Bar,"109 N Railroad St, Oran, MO 63771, United States",37.085526,-89.6557454,restaurant,Missouri
614,Benton,Berghoff's Cafe,"408 Rose-Con Rd, Scott City, MO 63780, United States",37.2141637,-89.5329431,restaurant,Missouri
615,Benton,Big Momma's,"754 Co Rd 459, Sikeston, MO 63801, United States",36.9845617,-89.67725159999999,restaurant,Missouri
616,Benton,Don Carlos Authentic Mexican Restaurant,"150 W Yoakum Ave, Chaffee, MO 63740, United States",37.1805418,-89.65722559999999,restaurant,Missouri
617,Benton,Big E Tavern,"213 N Main St, Chaffee, MO 63740, United States",37.1815088,-89.6546244,restaurant,Missouri
618,Benton,Flat Ridge Station,"8598 MO-77, Oran, MO 63771, United States",37.0916025,-89.6504807,restaurant,Missouri
619,Benton,2 Brothers Grill,"119 W Yoakum Ave, Chaffee, MO 63740, United States",37.1804786,-89.6559205,restaurant,Missouri
620,Benton,Burger King,"2614 Main St, Scott City, MO 63780, United States",37.21430429999999,-89.54228239999999,restaurant,Missouri
621,Benton,Blodgett City Store,"154 N Hawkins, Blodgett, MO 63824, United States",37.0046346,-89.5267823,restaurant,Missouri
622,Benton,Livi Jane's,"25153 Walnut St, Bell City, MO 63735, United States",37.0236243,-89.82005579999999,restaurant,Missouri
623,Benton,Cox Barton County Hospital,"29 NW 1st Ln, Lamar, MO 64759, United States",37.50568610000001,,heathcare,Missouri
624,Benton,Bates County Memorial Hospital,"615 W Nursery St, Butler, MO 64730, United States",38.2487991,,heathcare,Missouri
625,Benton,Cox Monett Hospital,"307 W Benton, Monett, MO 65708, United States",36.9269646,,heathcare,Missouri
626,Benton,Eureka Springs Hospital,"24 Norris St, Eureka Springs, AR 72632, United States",36.4002096,,heathcare,Missouri
627,Benton,Pershing Memorial Hospital,"130 E Lockling Ave, Brookfield, MO 64628, United States",39.774528,,heathcare,Missouri
628,Benton,Belton Regional Medical Center,"17065 U. S. Hwy 71, Belton, MO 64012, United States",38.8159187,,heathcare,Missouri
629,Benton,Franklin Hospital,"201 Bailey Ln, Benton, IL 62812, United States",38.0099195,,heathcare,Missouri
630,Benton,Mercy Hospital Springfield,"1235 E Cherokee St, Springfield, MO 65804, United States",37.1781178,,heathcare,Missouri
631,Benton,Cox North Hospital,"1423 N Jefferson Ave, Springfield, MO 65802, United States",37.2248227,,heathcare,Missouri
632,Benton,St. Luke's Hospital,"232 S Woods Mill Rd, Chesterfield, MO 63017, United States",38.6512755,,heathcare,Missouri
633,Benton,Marshall County Hospital,"615 Old Symsonia Rd, Benton, KY 42025, United States",36.8671125,,heathcare,Missouri
634,Benton,SEMO Health Network Benton Medical,"6724 MO-77, Benton, MO 63736, United States",37.0948701,,heathcare,Missouri
635,Benton,Barnes-Jewish Hospital,"One Barnes Jewish Hospital Plaza, St. Louis, MO 63110, United States",38.63525,,heathcare,Missouri
636,Benton,From Warsaw MO to Washington regional in Fayetteville Arkansas,"Warsaw, MO 65355, United States",38.2098041,,heathcare,Missouri
637,Benton,Southeast Hospital,"1701 Lacey St, Cape Girardeau, MO 63701, United States",37.3110319,,heathcare,Missouri
638,Benton,Bothwell Regional Health Center,"601 E 14th St, Sedalia, MO 65301, United States",38.6994909,,heathcare,Missouri
639,Benton,Semo Hospital,"1435 N Mt Auburn Rd, Cape Girardeau, MO 63701, United States",37.3299563,,heathcare,Missouri
640,Benton,Ozarks Community Hospital,"1101 Jackson St SW, Gravette, AR 72736, United States",36.4086024,,heathcare,Missouri
641,Benton,Mercy Hospital Cassville,"94 Main St, Cassville, MO 65625, United States",36.6747396,,heathcare,Missouri
642,Benton,Missouri Delta Medical Center,"1008 N Main St, Sikeston, MO 63801, United States",36.8899558,,heathcare,Missouri
643,Benton,Subway,"99 Stallcup Dr, Sikeston",36.8611051,-89.5852577,restaurant,Missouri
644,Benton,Subway,"1203 East Malone Avenue Suite A, Sikeston",36.88176720000001,-89.5688018,restaurant,Missouri
645,Benton,Pizza Inn,"1905 East Malone Avenue, Sikeston",36.8856492,-89.5557611,restaurant,Missouri
646,Benton,Little Caesars Pizza,"1051 East Malone Avenue, Sikeston",36.8804032,-89.5720341,restaurant,Missouri
647,Benton,Buffalo Wild Wings,"231 North Main Street, Sikeston",36.8795157,-89.58173029999999,restaurant,Missouri
648,Benton,Pizza Hut,"1103 East Malone Avenue, Sikeston",36.8755318,-89.57890259999999,restaurant,Missouri
649,Benton,Sonic Drive-In,"216 North Main Street, Sikeston",36.8799887,-89.57956539999999,restaurant,Missouri
650,Benton,Kirby's Sandwich Shop,"109 North Kingshighway ST, Sikeston",36.87771499999999,-89.588031,restaurant,Missouri
651,Benton,Papa Johns Pizza,"225 North Main Street, Sikeston",36.8795289,-89.5816344,restaurant,Missouri
652,Benton,Merick's Sandwich Shop,"901 East Malone Avenue, Sikeston",36.8792427,-89.57781,restaurant,Missouri
653,Benton,Taco John's,"1409 East Malone Avenue, Sikeston",36.8828763,-89.5652267,restaurant,Missouri
654,Benton,Dairy Queen Grill & Chill,"1101 South Main Street, Sikeston",36.86556849999999,-89.5821816,restaurant,Missouri
655,Benton,Imo's Pizza,"1061 South Main Street, Sikeston",36.8641853,-89.58330509999999,restaurant,Missouri
656,Benton,Lambert's Café,"2305 East Malone Avenue, Sikeston",36.88792819999999,-89.5465548,restaurant,Missouri
657,Benton,Applebee's Grill + Bar,"1260 South Main Street, Sikeston",36.8598263,-89.5828059,restaurant,Missouri
658,Benton,Colton's Steak House & Grill,"101 Hospitality Drive, Sikeston",36.858666,-89.58094,restaurant,Missouri
659,Benton,Dunkin',"Love's Travel Stop, #643, 1401 South Main Street, Sikeston",36.8536895,-89.58375799999999,restaurant,Missouri
660,Benton,Grecian Steak House,"531 Greer Avenue, Sikeston",36.87749100000001,-89.580471,restaurant,Missouri
661,Benton,Rhodes Convenience Store,"535 North Main Street, Sikeston",36.8838638,-89.5810623,restaurant,Missouri
662,Benton,El Bracero of Sikeston,"2612 East Malone Avenue, Sikeston",36.8931825,-89.5342453,restaurant,Missouri
663,Benton,Soraya Finkenzeller-Rayher,"Maximilianstrasse 56 a, Kleinoststein",36.9103926,-89.5874819,gym,Missouri
664,Benton,Sikeston Gymnastics II,"615 Davis Boulevard, Sikeston",36.88184809999999,-89.596741,gym,Missouri
665,Benton,YMCA,"511 Taylor Street, Sikeston",36.8821483,-89.5826031,gym,Missouri
666,Benton,The Bar Fitness,"100 outlet dr, Miner",36.8889404,-89.53568369999999,gym,Missouri
667,Benton,Sikeston Bootheel Gymnastics,"2618 Ables Road, Sikeston",36.8773843,-89.5394932,gym,Missouri
668,Benton,N40 CrossFit,"1105 State Highway H, Sikeston",36.92039619999999,-89.5382403,gym,Missouri
669,Benton,Midwest Gymnastic Arts,"108 Lakeside Drive, Sikeston",36.88494379999999,-89.5670265,gym,Missouri
670,Benton,Journey Yoga Studio,"613 Tanner Street, Sikeston",36.8813095,-89.5828368,gym,Missouri
671,Benton,CB Fitness,"501 Greer Avenue 2107 E, Sikeston",36.8772428,-89.5814619,gym,Missouri
672,Benton,Bootheel Fitness,"207 North New Madrid Street, Sikeston",36.8780091,-89.5900997,gym,Missouri
673,Benton,Taekwondo Advantage LLC,"901 South Kings Highway, Sikeston",36.86582679999999,-89.5862846,gym,Missouri
674,Benton,DaVita Sikeston Jaycee Regional At Home,"135 Plaza Drive #101, Sikeston",36.8913308,-89.58200289999999,healthcare,Missouri
675,Benton,DaVita Sikeston Jaycee Regional Dialysis,"135 Plaza Drive #101, Sikeston",36.89147829999999,-89.5818877,healthcare,Missouri
676,Benton,Missouri Delta Medical Center,"1008 North Main Street, Sikeston",36.8899558,-89.5840272,healthcare,Missouri
677,Benton,Sikeston VA Clinic,"903 South Kingshighway, Sikeston",36.8665962,-89.5863876,healthcare,Missouri
678,Benton,Sikeston Medical Center,"200 Southland Drive, Sikeston",36.8662369,-89.5818646,healthcare,Missouri
679,Benton,Missouri Delta Hospice,"1226 Linn Street suite g, Sikeston",36.88389129999999,-89.5663064,healthcare,Missouri
680,Benton,Missouri Delta Home Health,"1226 Linn Street # F, Sikeston",36.88389129999999,-89.5663064,healthcare,Missouri
681,Bollinger,Bollinger Mill State Historic Site,"113 Bollinger Mill Rd, Burfordville, MO 63739, United States",37.368119,-89.80305,tourist,Missouri
682,Bollinger,Elephant Rocks State Park,"7390, 7406 MO-21, Belleview, MO 63623, United States",37.65448749999999,-90.6879919,tourist,Missouri
683,Bollinger,Castor River Shut-Ins,"Fredericktown, MO 63645, United States",37.5688737,-90.1494776,tourist,Missouri
684,Bollinger,Dillard Mill State Historic Site,"142 Dillard Mill Rd, Davisville, MO 65456, United States",37.720756,-91.20673409999999,tourist,Missouri
685,Bollinger,Hawn State Park,"12096 Park Dr #8121, New Offenburg, MO 63670, United States",37.830848,-90.2291925,tourist,Missouri
686,Bollinger,Meramec Caverns,"1135 Hwy W, Sullivan, MO 63080, United States",38.241078,-91.091995,tourist,Missouri
687,Bollinger,Sandy Creek Covered Bridge State Historic Site,"9090 Old Lemay Ferry Rd, Hillsboro, MO 63050, United States",38.2945742,-90.52533900000002,tourist,Missouri
688,Bollinger,Battle of Pilot Knob State Historic Site,"118 Maple St, Pilot Knob, MO 63663, United States",37.6202956,-90.6387637,tourist,Missouri
689,Bollinger,Silver Dollar City,"399 Silver Dollar City Pkwy, Branson, MO 65616, United States",36.6664162,-93.33814369999999,tourist,Missouri
690,Bollinger,Forest Park,"5595 Grand Dr, St. Louis, MO 63112, United States",38.6444901,-90.2831478,tourist,Missouri
691,Bollinger,The Gateway Arch,"Gateway Arch, St. Louis, MO 63102, United States",38.6251269,-90.1867504,tourist,Missouri
692,Bollinger,The Space Museum and Grissom Center,"118 E School St, Bonne Terre, MO 63628, United States",37.9221442,-90.5517663,tourist,Missouri
693,Bollinger,Union Covered Bridge State Historic Site,"20700 Monroe County Road 962, Paris, MO 65275, United States",39.4329326,-92.10208300000001,tourist,Missouri
694,Bollinger,Felix Valle House State Historic Site,"198 Merchant St, Ste. Genevieve, MO 63670, United States",37.9799083,-90.04443719999999,tourist,Missouri
695,Bollinger,Mingo National Wildlife Refuge,"24279 MO-51, Puxico, MO 63960, United States",36.969508,-90.150683,tourist,Missouri
696,Bollinger,Reeds Spring Mill,"Co Rd 350, Centerville, MO 63633, United States",37.4338302,-90.9491975,tourist,Missouri
697,Bollinger,Gov. Daniel Dunklin's Grave State Historic Site,"104 Dunklin Dr, Herculaneum, MO 63048, United States",38.2802238,-90.3772733,tourist,Missouri
698,Bollinger,Bootheel Youth Museum,"700a N Douglass St, Malden, MO 63863, United States",36.5657881,-89.9697582,tourist,Missouri
699,Bollinger,Grand Gulf State Park,"State Hwy W, Koshkonong, MO 65692, United States",36.5438286,-91.643829,tourist,Missouri
700,Bollinger,Bothwell Lodge State Historic Site,"19349 Bothwell State Park Rd, Sedalia, MO 65301, United States",38.7949042,-93.2217153,tourist,Missouri
701,Bollinger,Jay's Bar-B-Que,"105 Conrad Ave, Marble Hill, MO 63764, United States",37.3035151,-89.97760919999999,restaurant,Missouri
702,Bollinger,Suzie's Country Kitchen,"MO-72, Patton, MO 63662, United States",37.5198166,-90.00983529999999,restaurant,Missouri
703,Bollinger,El Tule,"107 Presnell St, Marble Hill, MO 63764, United States",37.3040418,-89.9781615,restaurant,Missouri
704,Bollinger,Munchies Catering,"600 B #2, Marble Hill, MO 63764, United States",37.2993386,-89.9805761,restaurant,Missouri
705,Bollinger,T&J's Corner Cafe,"309 N Ruth St, Advance, MO 63730, United States",37.1069423,-89.9050437,restaurant,Missouri
706,Bollinger,Pizza Pro,"204 MO-34, Marble Hill, MO 63764, United States",37.3019792,-89.9833645,restaurant,Missouri
707,Bollinger,Hunt Brothers Pizza,"STATE HIGHWAY 72, MO-51 AND, Patton, MO 63662, United States",37.5188514,-90.0137511,restaurant,Missouri
708,Bollinger,Circle U Bar and Grill,"RR 2 Box #2420, Sedgewickville, MO 63781, United States",37.5154334,-89.91056669999999,restaurant,Missouri
709,Bollinger,Livi Jane's,"25153 Walnut St, Bell City, MO 63735, United States",37.0236243,-89.82005579999999,restaurant,Missouri
710,Bollinger,Pizza House,"29916, Marble Hill, MO 63764, United States",37.3058871,-89.97037929999999,restaurant,Missouri
711,Bollinger,Farmer's Corner Cafe,"4053 State Hwy E, Oak Ridge, MO 63769, United States",37.5013052,-89.7296661,restaurant,Missouri
712,Bollinger,El Mexicano,"407 E South St, Advance, MO 63730, United States",37.1037768,-89.90528479999999,restaurant,Missouri
713,Bollinger,Hunt Brothers Pizza,"4834 MO-34, Glenallen, MO 63751, United States",37.2535897,-90.1440131,restaurant,Missouri
714,Bollinger,The hay barn bar and grill,"25500 MO-91, Bell City, MO 63735, United States",37.026736,-89.8124161,restaurant,Missouri
715,Bollinger,JJ's Roadside Cafe,"307 E State St, Delta, MO 63744, United States",37.1963473,-89.7331478,restaurant,Missouri
716,Bollinger,Charlie's Smokehouse BBQ,"5156 MO-34, Burfordville, MO 63739, United States",37.3683372,-89.81124,restaurant,Missouri
717,Bollinger,La Chatina Mexican Restaurant,"1228 MO-72, Fredericktown, MO 63645, United States",37.5656318,-90.2626724,restaurant,Missouri
718,Bollinger,Southern Barrel Bar And Grill,"11924 State Hwy K, Puxico, MO 63960, United States",37.0152591,-90.05648479999999,restaurant,Missouri
719,Bollinger,McDonald's,"315 Presnell, Marble Hill, MO 63764, United States",37.3056409,-89.976495,restaurant,Missouri
720,Bollinger,The Depot Cafe,"406 Villar St, Fredericktown, MO 63645, United States",37.56553600000001,-90.293071,restaurant,Missouri
721,Bollinger,Perry County Memorial Hospital,"434 N West St, Perryville, MO 63775, United States",37.7322447,,heathcare,Missouri
722,Bollinger,Ste. Genevieve County Memorial Hospital,"800 Ste Genevieve Dr, Ste. Genevieve, MO 63670, United States",37.96925969999999,,heathcare,Missouri
723,Bollinger,Subway,"725 Ste Genevieve Drive, Ste. Genevieve",37.9684947,-90.04934,restaurant,Missouri
724,Bollinger,Old Brick House,"90 S 3rd Street, Ste. Genevieve",37.97886479999999,-90.0457936,restaurant,Missouri
725,Bollinger,Anvil Restaurant & Saloon,"46 3rd Street, Ste. Genevieve",37.9793357,-90.04594159999999,restaurant,Missouri
726,Bollinger,Lam's Garden,"745 Ste Genevieve Drive, Ste. Genevieve",37.96855829999999,-90.04961019999999,restaurant,Missouri
727,Bollinger,Domino's Pizza,"40 Plaza Drive, Ste. Genevieve",37.96717570000001,-90.05257399999999,restaurant,Missouri
728,Bollinger,The Audubon's: Hotel & Restaurant,"9 North Main Street, Ste. Genevieve",37.980418,-90.043296,restaurant,Missouri
729,Bollinger,Dairy Queen Grill & Chill,"18575 Missouri 32, Ste. Genevieve",37.9369166,-90.11900159999999,restaurant,Missouri
730,Bollinger,Sirros,"261 Merchant Street, Ste. Genevieve",37.9799126,-90.0456633,restaurant,Missouri
731,Bollinger,McDonald's,"706 Ste Genevieve Drive, Ste. Genevieve",37.96770009999999,-90.0493607,restaurant,Missouri
732,Bollinger,Chester's,"142 Plaza Drive, Ste. Genevieve",37.9673805,-90.0537277,restaurant,Missouri
733,Bollinger,China King,"110 Pointe Basse Drive, Ste. Genevieve",37.96731939999999,-90.0532836,restaurant,Missouri
734,Bollinger,Cafe Genevieve,"950 Ste Genevieve Drive, Ste. Genevieve",37.9700393,-90.05819699999999,restaurant,Missouri
735,Bollinger,Week's Restaurant,"710 Ste Genevieve Drive, Ste. Genevieve",37.96776949999999,-90.0499493,restaurant,Missouri
736,Bollinger,El Potosino Mexican Restaurant,"634 Ste Genevieve Drive, Ste. Genevieve",37.9677312,-90.04822419999999,restaurant,Missouri
737,Bollinger,Mimi's,"675 Ste Genevieve Drive, Ste. Genevieve",37.9682719,-90.0478419,restaurant,Missouri
738,Bollinger,Daily Flavors,"21551 Missouri 32, Ste. Genevieve",37.95921309999999,-90.0644819,restaurant,Missouri
739,Bollinger,Pat’s Pastries,"123 Merchant Street, Ste. Genevieve",37.9803331,-90.04353760000001,restaurant,Missouri
740,Bollinger,Oliver's,"109 North Main Street, Ste. Genevieve",37.9815537,-90.0434829,restaurant,Missouri
741,Bollinger,El San Felipe Mexican Grill,"21454 Missouri 32, Ste. Genevieve",37.9571128,-90.0657765,restaurant,Missouri
742,Bollinger,Rooted Coffee,"122 North Main Street, Ste. Genevieve",37.9816696,-90.0431272,restaurant,Missouri
743,Bollinger,Ste. Genevieve County Memorial Hospital,"800 Ste Genevieve Drive, Ste. Genevieve",37.96925969999999,-90.05446169999999,healthcare,Missouri
744,Bollinger,Pine Drive Medical Centre,"575 Pine Drive, Ste. Genevieve",37.96937169999999,-90.0538024,healthcare,Missouri
745,Boone,The Historic Daniel Boone Home,"1868 Hwy F, Defiance, MO 63341, United States",38.6514651,-90.8530988,tourist,Missouri
746,Boone,Nathan and Olive Boone Homestead State Historic Site,"7850 N, 8159, State Hwy V, Ash Grove, MO 65604, United States",37.3480088,-93.579686,tourist,Missouri
747,Boone,Boone's Lick State Historic Site,"MO-187, Franklin, MO 65250, United States",39.078391,-92.878675,tourist,Missouri
748,Boone,"Bonne Terre Mine ""The Mine at Bonne Terre""","185 Park Ave, Bonne Terre, MO 63628, United States",37.922527,-90.551518,tourist,Missouri
749,Boone,Boone County History & Culture Center,"3801 Ponderosa St, Columbia, MO 65201, United States",38.9074598,-92.2937231,tourist,Missouri
750,Boone,Smallin Civil War Cave,"3575 N Smallin Rd, Ozark, MO 65721, United States",37.0527829,-93.18761860000001,tourist,Missouri
751,Boone,Grindstone Nature Area,"2011 Old 63 S, Columbia, MO 65201, United States",38.926064,-92.31173659999999,tourist,Missouri
752,Boone,Rock Bridge Memorial State Park,"5901 South Highway 163, Columbia, MO 65203, United States",38.8710185,-92.3151548,tourist,Missouri
753,Boone,Stephens Lake Park,"2001 E Broadway, Columbia, MO 65201, United States",38.9508524,-92.3057872,tourist,Missouri
754,Boone,Missouri State Penitentiary,"115 Lafayette St, Jefferson City, MO 65101, United States",38.5737291,-92.1618735,tourist,Missouri
755,Boone,Missouri State Museum,"201 W Capitol Ave, Jefferson City, MO 65101, United States",38.5789202,-92.1732622,tourist,Missouri
756,Boone,Jefferson Landing State Historic Site,"100 Jefferson St, Jefferson City, MO 65101, United States",38.5789366,-92.17027639999999,tourist,Missouri
757,Boone,David R. Francis Quadrangle Historic District,"410 S 6th St, Columbia, MO 65211, United States",38.946291,-92.32865749999999,tourist,Missouri
758,Boone,Boathenge,"Columbia, MO 65203, United States",38.8185381,-92.3857677,tourist,Missouri
759,Boone,"River, Rails & Trails Museum","100 W Spring St, Boonville, MO 65233, United States",38.97433290000001,-92.7495625,tourist,Missouri
760,Boone,Binder Park,"5840 Rainbow Dr, Jefferson City, MO 65109, United States",38.5950447,-92.3012141,tourist,Missouri
761,Boone,Bonnie View Nature Sanctuary,"3300 W Rollins Rd, Columbia, MO 65203, United States",38.94651169999999,-92.3867008,tourist,Missouri
762,Boone,Capen Park,"1600 Capen Park Dr, Columbia, MO 65201, United States",38.9299706,-92.3216501,tourist,Missouri
763,Boone,Frank G. Nifong Memorial Park,"2900 E Nifong Blvd, Columbia, MO 65201, United States",38.906233,-92.2963609,tourist,Missouri
764,Boone,Three Creeks Conservation Area,"Columbia, MO 65201, United States",38.8348258,-92.2876645,tourist,Missouri
765,Boone,The Farmhouse on Boone Cafe,"125 W Main St, Ash Grove, MO 65604, United States",37.3156225,-93.5858207,restaurant,Missouri
766,Boone,Boone's BBQ Barn,"5260 S Scenic Ave, Bolivar, MO 65613, United States",37.5668625,-93.3935801,restaurant,Missouri
767,Boone,Ozark Mountain Biscuit & Bar,"1204 Hinkson Ave, Columbia, MO 65201, United States",38.9568671,-92.3220832,restaurant,Missouri
768,Boone,Main Street Diner,"201 Main St, Boonville, MO 65233, United States",38.9774171,-92.74451499999999,restaurant,Missouri
769,Boone,Papadoo’s Breakfast brunch and soul food,"1301 Vandiver Dr, Columbia, MO 65202, United States",38.9719349,-92.32085269999999,restaurant,Missouri
770,Boone,Ernie's Cafe & Steak House,"1005 E Walnut St, Columbia, MO 65201, United States",38.9527126,-92.32600289999999,restaurant,Missouri
771,Boone,Noodles and Company,"406 S 9th St, Columbia, MO 65201, United States",38.9469646,-92.3273098,restaurant,Missouri
772,Boone,Sycamore Restaurant,"800 E Broadway, Columbia, MO 65201, United States",38.95141290000001,-92.3284451,restaurant,Missouri
773,Boone,Sake Japanese Bistro and Bar,"16 S 10th St, Columbia, MO 65201, United States",38.9508954,-92.3262478,restaurant,Missouri
774,Boone,Kobe Japanese Steakhouse,"2531 Broadway Bluffs Dr, Columbia, MO 65201, United States",38.9483908,-92.3002046,restaurant,Missouri
775,Boone,Beet Box,"602 Fay St, Columbia, MO 65201, United States",38.957985,-92.3225869,restaurant,Missouri
776,Boone,44 Canteen,"21 N 9th St, Columbia, MO 65201, United States",38.9522999,-92.3278438,restaurant,Missouri
777,Boone,Pho Quan Viet Cuisine,"1301 Vandiver Dr # J, Columbia, MO 65202, United States",38.971861,-92.3208147,restaurant,Missouri
778,Boone,The 87 Diner,"19510 Steven Kole Ct, Boonville, MO 65233, United States",38.9368518,-92.6939214,restaurant,Missouri
779,Boone,Big Mama Chims Noodle House,"905 Alley A, Columbia, MO 65201, United States",38.9510435,-92.3272611,restaurant,Missouri
780,Boone,Miknan's Main Street Pub,"107 N Main St, Fayette, MO 65248, United States",39.1465438,-92.68273459999999,restaurant,Missouri
781,Boone,Big Mama's Cafe,"3510 Interstate 70 Dr SE, Columbia, MO 65201, United States",38.9610358,-92.2844817,restaurant,Missouri
782,Boone,New Orleans House of Gumbo LLC,"411 E Ashley Rd, Boonville, MO 65233, United States",38.96807260000001,-92.742488,restaurant,Missouri
783,Boone,Chris McD's Restaurant & Wine Bar,"1400 Forum Blvd, Columbia, MO 65203, United States",38.9361618,-92.3587051,restaurant,Missouri
784,Boone,Bangkok Gardens,"811 Cherry St, Columbia, MO 65201, United States",38.9505962,-92.3280655,restaurant,Missouri
785,Boone,Boone Hospital Center,"1600 E Broadway, Columbia, MO 65201, United States",38.9494785,,heathcare,Missouri
786,Boone,Va,"Columbia, MO 65201, United States",38.9367781,,heathcare,Missouri
787,Boone,Boone County Hospital,"1015 Union St, Boone, IA 50036, United States",42.0560337,,heathcare,Missouri
788,Boone,University Hospital,"1 Hospital Dr, Columbia, MO 65212, United States",38.9385546,,heathcare,Missouri
789,Boone,Mercy St. Francis Hospital,"100 US-60, Mountain View, MO 65548, United States",37.002441,,heathcare,Missouri
790,Boone,Perry County Memorial Hospital,"434 N West St, Perryville, MO 63775, United States",37.7322447,,heathcare,Missouri
791,Boone,SSM Health St. Mary's Hospital - Jefferson City,"2505 Mission Dr, Jefferson City, MO 65109, United States",38.5579201,,heathcare,Missouri
792,Boone,Women's Hospital,"404 N Keene St, Columbia, MO 65201, United States",38.9577116,,heathcare,Missouri
793,Boone,Barnes-Jewish St. Peters Hospital,"10 Hospital Dr, St Peters, MO 63376, United States",38.793774,,heathcare,Missouri
794,Boone,Subway,"947 Jungermann Road, St. Peters",38.7716183,-90.581656,restaurant,Missouri
795,Boone,Little Caesars Pizza,"4879 Mexico Road, St. Peters",38.7918214,-90.5873761,restaurant,Missouri
796,Boone,Red Lobster,"Next to Bandana’s and Kokomo Joe’s, 4101 Veterans Memorial Parkway, St. Peters",38.795084,-90.57229199999999,restaurant,Missouri
797,Boone,Ruby Tuesday,"190 Mid Rivers Mall Circle, St. Peters",38.7975739,-90.6199122,restaurant,Missouri
798,Boone,Outback Steakhouse,"5228 North Service Road, St. Peters",38.8004095,-90.61635799999999,restaurant,Missouri
799,Boone,Culver's,"2750 Muegge Road, Saint Charles",38.789235,-90.56528379999999,restaurant,Missouri
800,Boone,Papa Johns Pizza,"521 Jungermann Road, St. Peters",38.77904179999999,-90.5778201,restaurant,Missouri
801,Boone,IHOP,"3851 Veterans Memorial Parkway, St. Peters",38.7914924,-90.5622047,restaurant,Missouri
802,Boone,Fratelli's Ristorante,"2061 Zumbehl Road, Saint Charles",38.7836904,-90.5353502,restaurant,Missouri
803,Boone,LongHorn Steakhouse,"3979 Veterans Memorial Parkway, St. Peters",38.794267,-90.568893,restaurant,Missouri
804,Boone,China King Restaurant,"919 Jungermann Road, St. Peters",38.7722865,-90.5813963,restaurant,Missouri
805,Boone,Red Robin Gourmet Burgers and Brews,"317 Mid Rivers Mall Drive, St. Peters",38.79309699999999,-90.624303,restaurant,Missouri
